stop_id,stop_name,stop_lat,stop_lon,stop_code,location_type,parent_station,wheelchair_boarding,stop_direction
002133,Örs vezér tere,47.500366,19.1357,,,,,
002138,Kőbánya alsó vasútállomás,47.483139,19.127891,,,,2.0,
003002,Puskás Ferenc Stadion,47.500368,19.103406,,,,,
003103,"Káposztásmegyer,ogyoródi-patak",47.598778,19.121447,,,,,
003105,Bécsi út / Vörösvári út,47.548817,19.029722,,,,2.0,
003106,Örs vezér tere,47.50516,19.136637,,,,,
003118,"Óbuda, Bogdáni út",47.551471,19.041971,,,,2.0,
004716,"ÉD metró járműtelep,porta",47.469651,19.129089999999998,,,,2.0,
004903,Örs vezér tere,47.503479999999996,19.137210999999997,004903,,CSLM2OVE,2.0,
005924,Mill.FAV járműtelep (kapu),47.518788,19.093168,,,,,
006390,Cinkota kocsiszín (kapu),47.519345,19.217072,,,,,
007177,Csepel kocsiszín (kapu),47.421498,19.066247,,,,,
007675,Dunaharaszti külső kocsiszín (kapu),47.362751,19.088475,,,,,
007724,Csömör,47.544971000000004,19.225038,007724,,CSF04655,2.0,
007736,Gödöllő,47.593332000000004,19.357761,007736,,CSF04679,2.0,
007762,Szentendre kocsiszín (kapu),47.658755,19.072392,,,,,
007817,Márta utca,47.429184,18.929497,,,,2.0,160.0
007877,Bíróság,47.519544,18.97806,,,,1.0,-78.0
007878,Bíróság,47.519418,18.978021,,,,1.0,102.0
007879,"Római úti lakótelep, Varsa utca",47.570863,19.058543,,,,2.0,99.0
007880,Bécsi út / Vörösvári út,47.547562,19.028729000000002,,,,1.0,
007881,Váradi utca,47.543721999999995,19.030125,,,,1.0,-10.0
007882,Váradi utca,47.542679,19.029953,,,,1.0,168.0
007883,Perényi út,47.5458,19.029579000000002,,,,1.0,-9.0
007884,Deák Ferenc tér,47.497413,19.055158,,,,1.0,
007885,Dorottya utca (Vörösmarty tér),47.497476,19.049623,,,,1.0,-128.0
007887,Mester utca / Ferenc körút,47.482246,19.068716000000002,,,,2.0,16.0
007888,Mester utca / Ferenc körút,47.48257,19.068476999999998,,,,2.0,-163.0
007890,Mester utca / Ferenc körút,47.481671,19.068782000000002,,,,2.0,123.0
007897,Kelenföld vasútállomás,47.464572,19.022964,,,,1.0,94.0
007898,Kelenföld vasútállomás,47.464653000000006,19.023017000000003,,,,1.0,100.0
007899,Kelenföld vasútállomás,47.46477,19.023003,007899,,CS007899,2.0,
007900,Maros utcai rendelőintézet,47.503724,19.022401000000002,,,,1.0,144.0
007902,Újpest-városkapu,47.5586,19.07822,,,,1.0,56.0
007913,526. sor,47.479281,19.211332000000002,,,,2.0,118.0
007914,526. sor,47.4793,19.211468,,,,2.0,-62.0
007919,Pólus Center,47.552544,19.143552,,,,2.0,-138.0
007923,Kele utca,47.431808000000004,19.173804,,,,1.0,34.0
007924,Ültetvény utca,47.396895,19.175423000000002,,,,2.0,45.0
007927,Ferihegy vasútállomás,47.438423,19.222716000000002,,,,1.0,-43.0
007928,Ferihegy vasútállomás,47.437667,19.223377,,,,1.0,134.0
007930,Savoyai Jenő tér (Törley tér),47.430333000000005,19.036354,,,,1.0,-100.0
007931,Savoyai Jenő tér (Törley tér),47.430369,19.036792000000002,,,,1.0,-99.0
007949,Kocsis Sándor út,47.574343,19.013009,,,,1.0,180.0
007950,Keleti pályaudvar,47.501104,19.082712,,,,1.0,-129.0
007967,Kelenföld vasútállomás,47.465732,19.021875,,,,1.0,
007968,Mogyoród útja,47.570602,19.128267,,,,1.0,37.0
007972,Hűvösvölgy,47.543009000000005,18.964481,,,,2.0,163.0
007974,Hűvösvölgy,47.542605,18.964773,,,,1.0,144.0
007975,Hűvösvölgy,47.543243,18.964281,,,,2.0,
007976,Hűvösvölgy,47.543264,18.963995,,,,2.0,-40.0
007977,Hűvösvölgy,47.542968,18.964195,,,,2.0,-29.0
007978,Hűvösvölgy,47.542707,18.964354999999998,,,,2.0,-29.0
007979,Vörösmarty utca,47.507467999999996,19.066509,,,,2.0,-135.0
007980,Vörösmarty utca,47.507444,19.066767000000002,,,,2.0,45.0
007995,Jókaiór utca,47.410717,19.020681,,,,2.0,-32.0
007996,Budatétény vasútállomás (Campona),47.40572,19.013837,,,,1.0,-26.0
007997,Budatétény vasútállomás (Campona),47.405972,19.014129,,,,1.0,-66.0
007998,Budatétény vasútállomás (Campona),47.405711,19.014354,,,,1.0,-55.0
007999,Budatétény vasútállomás (Campona),47.405702000000005,19.014155,,,,1.0,-174.0
008003,Budagyöngye,47.515894,18.999506,,,,2.0,-30.0
008005,Móricz Zsigmond körtér,47.477022999999996,19.047527,,,,1.0,18.0
008018,Örs vezér tere,47.500933,19.135714,,,,2.0,
008020,Örs vezér tere,47.500932,19.136306,,,,1.0,
008021,Örs vezér tere,47.501940000000005,19.136228,,,,1.0,-34.0
008022,Örs vezér tere,47.501517,19.136333,,,,1.0,-9.0
008023,Örs vezér tere,47.501472,19.136134,,,,1.0,169.0
008024,Örs vezér tere,47.501148,19.136213,,,,1.0,165.0
008025,Örs vezér tere,47.501778,19.135922,,,,1.0,-14.0
008026,Örs vezér tere,47.501355,19.136028,,,,1.0,-4.0
008027,Örs vezér tere,47.501436,19.135801999999998,,,,1.0,
008028,Örs vezér tere,47.501112,19.135882000000002,,,,1.0,137.0
008029,Örs vezér tere,47.502111,19.135697,,,,1.0,-102.0
008030,Örs vezér tere,47.501742,19.135604,,,,1.0,-11.0
008031,Örs vezér tere,47.501319,19.135709,,,,1.0,
008036,Kőbányai út 31.,47.487460999999996,19.104252,,,,1.0,-68.0
008037,Kőbányai út 31.,47.487452000000005,19.103721,,,,1.0,112.0
008040,Tas vezér utca,47.478606,19.040827,,,,2.0,109.0
008041,Tas vezér utca,47.478849,19.040827,,,,1.0,-71.0
008047,Lajosmizsei sorompó,47.450468,19.16141,,,,2.0,-59.0
008050,Liptó utca,47.4861,19.007031,,,,2.0,-147.0
008051,Liptó utca,47.48601,19.007071,,,,2.0,32.0
008067,Szent Imre tér,47.430889,19.0703,,,,1.0,-175.0
008080,Göncz Árpád városközpont,47.534584,19.067859,,,,1.0,
008086,Széll Kálmán tér,47.507313,19.026381,,,,1.0,41.0
008087,Fény utcai piac,47.508464000000004,19.023646,,,,1.0,-84.0
008090,Móricz Zsigmond körtér,47.477256,19.048786,,,,1.0,108.0
008093,Dél-pesti autóbuszgarázs,47.426707,19.161776,,,,1.0,-121.0
008094,Dél-pesti autóbuszgarázs,47.426159999999996,19.16094,,,,1.0,57.0
008095,Nagykőrösi út,47.425255,19.157029,,,,2.0,-106.0
008096,Nagykőrösi út,47.425183000000004,19.157506,,,,2.0,73.0
008098,Szabina út,47.43645,19.013416,,,,2.0,-168.0
008099,Pék utca,47.442037,19.018742,,,,2.0,108.0
008100,Pék utca,47.442184000000005,19.018652,,,,2.0,-72.0
008101,Rózsavölgy felső,47.441102,19.022349,,,,2.0,121.0
008102,Rózsavölgy felső,47.44112,19.022627,,,,2.0,-59.0
008103,Rózsavölgy alsó,47.43828,19.030491,,,,2.0,-69.0
008104,Rózsavölgy alsó,47.43827,19.029987,,,,2.0,105.0
008106,Vihar utca,47.434282,19.035651,,,,1.0,142.0
008109,Damjanich utca,47.402518,18.991053,,,,1.0,22.0
008110,Barosstelep vasútállomás,47.399613,18.990910999999997,,,,1.0,-91.0
008111,Barackos út / Angeli utca,47.402248,18.974427,,,,1.0,-126.0
008112,Szakiskola utca,47.404920000000004,18.975841,,,,2.0,176.0
008113,Szilvafa utca,47.405214,18.982167999999998,,,,2.0,-94.0
008114,Mátyás király utca,47.404326,18.990745999999998,,,,2.0,-59.0
008115,Szebeni utca,47.430338,19.016060999999997,,,,2.0,-81.0
008116,Szebeni utca,47.430177,19.016896,,,,2.0,99.0
008119,Mátra utca,47.400093,18.997692999999998,,,,2.0,-103.0
008120,Budatétény vasútállomás (Campona),47.40563,19.013784,,,,2.0,-45.0
008124,Zöldike utca,47.430738,19.012823,,,,2.0,-80.0
008125,Zöldike utca,47.431205,19.012359,,,,2.0,154.0
008126,Hír utca,47.432896,19.011523,,,,2.0,13.0
008127,Hír utca,47.432914000000004,19.011403,,,,2.0,-167.0
008128,Ady Endre út,47.435802,19.036578,,,,2.0,-25.0
008132,Puskás Ferenc Stadion,47.501283,19.107691,,,,1.0,163.0
008146,Vajda Péter utca,47.481389,19.103174,,,,1.0,-152.0
008147,Vajda Péter utca,47.481770000000004,19.103619000000002,,,,1.0,31.0
008148,Kőbányai út / Könyves Kálmán körút,47.485742,19.107077,,,,1.0,-152.0
008149,Kőbányai út / Könyves Kálmán körút,47.486236,19.107515,,,,1.0,25.0
008150,Zsil utca,47.48294,19.062984,,,,2.0,-44.0
008152,Mester utca / Könyves Kálmán körút,47.469596,19.083728,,,,1.0,-110.0
008153,Mester utca / Könyves Kálmán körút,47.469722999999995,19.084482,,,,1.0,69.0
008155,Közvágóhíd,47.468737,19.072756,,,,1.0,-94.0
008156,Új köztemető,47.473586,19.178326000000002,,,,1.0,-8.0
008164,Örs vezér tere,47.501382,19.136585,,,,1.0,135.0
008165,Örs vezér tere,47.501849,19.136467,,,,1.0,170.0
008168,I. utca,47.400994,19.002739000000002,,,,1.0,-106.0
008169,I. utca,47.400904,19.003494,,,,1.0,85.0
008170,Angeli utca / Nagytétényi út,47.390622,18.981,,,,1.0,58.0
008174,Népliget,47.475842,19.100499,,,,2.0,
008175,"Népliget, tároló",47.475832000000004,19.100182999999998,,,,2.0,
008181,Cinkotai autóbuszgarázs,47.498562,19.237779,,,,2.0,66.0
008187,Batthyány tér,47.506776,19.039317999999998,008187,,CSF00062,2.0,
008206,Mexikói út,47.519261,19.091048,,,,1.0,
008209,Nagy Lajos király útja / Czobor utca,47.52217,19.102815,,,,1.0,114.0
008218,Széchenyi István tér,47.499014,19.047022,,,,2.0,165.0
008222,Örs vezér tere,47.503684,19.136443,,,,1.0,168.0
008238,Széchenyi István tér,47.500543,19.046689999999998,,,,1.0,-111.0
008239,Müpa - Nemzeti Színház,47.471165,19.073129,,,,1.0,149.0
008240,Müpa - Nemzeti Színház,47.471354,19.073301,,,,1.0,-30.0
008241,Szőnyi út,47.526625,19.096220000000002,,,,1.0,-54.0
008242,Teleki Blanka utca,47.523865,19.093760999999997,,,,1.0,-158.0
008243,Szántóföld utca,47.572244,19.13883,,,,2.0,-144.0
008245,Kolozsvár utcai piac,47.536842,19.114916,,,,1.0,-136.0
008246,Rákospalotai köztemető,47.55124,19.13601,,,,2.0,-50.0
008260,Nagybányai út,47.528476,18.996294,,,,1.0,-110.0
008261,Nagybányai út,47.528368,18.996467000000003,,,,1.0,70.0
008262,Hidegkuti Nándor Stadion,47.49069,19.10891,,,,1.0,-180.0
008265,Közvágóhíd,47.468737,19.073486,,,,1.0,89.0
008267,Szentlőrinci út,47.424625,19.157703,,,,1.0,-127.0
008269,Delej utca,47.484694,19.096208999999998,,,,1.0,-64.0
008270,Delej utca,47.48446,19.096407,,,,1.0,116.0
008271,Szentendre,47.661038,19.075607,,,,2.0,
008272,Közvágóhíd,47.466285,19.077170000000002,,,,2.0,
008280,Infopark (Pázmány Péter sétány),47.469242,19.064332999999998,,,,1.0,177.0
008283,Óceán-árok utca,47.589985999999996,19.100345,,,,1.0,-122.0
008284,Óceán-árok utca,47.590345,19.101781,,,,1.0,56.0
008286,Népliget,47.476294,19.099288,,,,1.0,23.0
008287,Népliget,47.476345,19.098937,,,,1.0,-152.0
008289,Szilágyi utca,47.570877,19.11133,,,,1.0,-70.0
008317,Bartók Béla utca,47.433298,18.919575,,,,2.0,-132.0
008318,Raktárváros,47.441547,18.938276000000002,,,,2.0,-123.0
008319,Raktárváros,47.441565999999995,18.938608,,,,2.0,57.0
008322,Harangláb,47.431924,18.914078,,,,2.0,130.0
008323,Károlyi utca,47.43769,18.899546,,,,2.0,132.0
008324,Tükörhegy,47.436382,18.927085,,,,2.0,-125.0
008325,Tükörhegy,47.436211,18.926992000000002,,,,2.0,55.0
008326,Ady Endre utca,47.435045,18.906260999999997,,,,1.0,116.0
008328,Törökbálint Sportközpont,47.440051000000004,18.895734,,,,2.0,-49.0
008329,Törökbálint Sportközpont,47.440284000000005,18.895177,,,,2.0,132.0
008330,Határ utca,47.445284,18.8943,,,,2.0,-1.0
008331,Határ utca,47.444924,18.894036,,,,2.0,-154.0
008332,Hosszúrét utca,47.446065999999995,18.881264,,,,2.0,172.0
008333,"Törökbálint, bevásárlóközpont",47.443242,18.887398,,,,2.0,25.0
008336,Növény utca,47.402071,19.015810000000002,,,,2.0,54.0
008337,Növény utca,47.402125,19.015254000000002,,,,2.0,-127.0
008339,Budaörsi lakótelep,47.455746000000005,18.940232,,,,1.0,137.0
008341,Templom tér,47.542367,19.130057,,,,2.0,165.0
008344,Királyhágó tér,47.495421,19.018729,,,,1.0,130.0
008345,Katona József utca,47.438346,18.906478,,,,2.0,139.0
008353,Észak-Pesti Kórház,47.539377,19.122388,,,,2.0,46.0
008359,Óbudai autóbuszgarázs,47.567996,19.026301999999998,008359,,CSF00678,1.0,
008360,Óbudai autóbuszgarázs,47.568290000000005,19.02673,,,,2.0,
008365,Bécsi út / Vörösvári út,47.548489000000004,19.028941,008365,,CSF00568,1.0,
008377,Nagykőrösi út /atár út,47.45645,19.11466,,,,2.0,-83.0
008379,Kőbánya alsó vasútállomás,47.483885,19.127207000000002,,,,2.0,-31.0
008380,Kőbánya alsó vasútállomás,47.483256,19.12813,,,,2.0,137.0
008381,Kőbánya alsó vasútállomás,47.484010999999995,19.127574,,,,2.0,-114.0
008382,Örs vezér tere,47.502448,19.136843,,,,1.0,-9.0
008383,Örs vezér tere,47.502623,19.136654,,,,1.0,167.0
008385,"Rákospalota,ÁV-telep",47.541308,19.121443,,,,1.0,
008399,Pestszentimre vasútállomás,47.404222,19.186489,,,,1.0,-140.0
008400,"Dunakeszi, Auchan áruház",47.608971999999994,19.117347,,,,2.0,110.0
008402,Kert sor,47.591122,19.045358,,,,1.0,23.0
008403,Kert sor,47.591374,19.045384,,,,1.0,-157.0
008404,Csillaghegy,47.584817,19.042061,,,,1.0,20.0
008405,Csillaghegy,47.584781,19.041862,,,,1.0,-159.0
008406,Forrásliget lakópark,47.581093,19.037502,,,,1.0,51.0
008407,Forrásliget lakópark,47.581363,19.037795000000003,,,,1.0,-129.0
008408,Ürömhegyi lejtő,47.577645000000004,19.032198,,,,2.0,14.0
008409,Ürömhegyi lejtő,47.577663,19.032065,,,,2.0,-166.0
008410,Aranyhegyi lejtő,47.572593,19.030301,,,,2.0,14.0
008411,Aranyhegyi lejtő,47.572511999999996,19.030128,,,,2.0,-166.0
008412,Bécsi út / Vörösvári út,47.548471,19.02918,,,,1.0,0.0
008426,"Káposztásmegyer, Szilas-patak",47.577405,19.114926999999998,,,,2.0,11.0
008428,"Budakalász, Budai út",47.617063,19.051534,,,,2.0,-48.0
008429,"Budakalász, Budai út",47.616729,19.051767,,,,2.0,145.0
008430,"Budakalász, Lenfonó",47.620304,19.046374,,,,1.0,-10.0
008431,"Budakalász, Lenfonó",47.6218,19.045662,,,,1.0,167.0
008432,Szentistvántelep,47.628444,19.043367,,,,2.0,-18.0
008433,Szentistvántelep,47.627055,19.043879,,,,2.0,163.0
008434,Pomáz,47.643896999999996,19.030357000000002,,,,1.0,-39.0
008435,Pomáz,47.642594,19.031458999999998,,,,2.0,128.0
008436,"Szentendre, Papírgyár",47.648965000000004,19.069449,,,,1.0,17.0
008437,Papírgyár,47.647762,19.069060999999998,,,,1.0,177.0
008438,Egyetem,47.652306,19.071738,,,,1.0,26.0
008439,Egyetem,47.652066999999995,19.071331,,,,1.0,-154.0
008440,Gubacsi út /atár út,47.443626,19.096848,,,,1.0,42.0
008447,Dióskert,47.42563,18.911984,,,,2.0,-117.0
008455,Jászaiari tér,47.512811,19.047938000000002,,,,2.0,
008458,Tisza István tér,47.51723,19.10735,,,,1.0,-43.0
008459,Uzsoki Utcai Kórház,47.519822,19.103742,,,,1.0,-42.0
008460,Uzsoki Utcai Kórház,47.519642,19.103436,,,,1.0,136.0
008461,Erzsébet királyné útja / Róna utca,47.521615000000004,19.101317,,,,1.0,-37.0
008462,Bretzfeld utca,47.460536,18.945898,,,,1.0,153.0
008469,Gubacsi út /atár út,47.444418,19.096583,,,,2.0,
008471,Dél-pesti autóbuszgarázs,47.426556,19.160782,,,,1.0,140.0
008472,Dél-pesti autóbuszgarázs,47.426744,19.16114,,,,1.0,-24.0
008479,Homokbánya utca,47.399559,18.941035,,,,2.0,-42.0
008480,Petőfi Sándor utca,47.40247,18.937784,,,,1.0,46.0
008481,Soroksár felső,47.40998,19.111404999999998,,,,1.0,171.0
008486,Csonka János tér,47.47007,19.044795,,,,1.0,-167.0
008490,Határ út,47.464573,19.126164000000003,,,,1.0,148.0
008491,Jászberényi út,47.485549,19.192667999999998,,,,2.0,10.0
008498,Aszódi utca,47.463484,19.100991,,,,1.0,146.0
008499,Közterületfenntartó Zrt.,47.467861,19.106659,,,,1.0,-149.0
008500,Ecseri út,47.470487,19.108771,,,,2.0,-150.0
008501,Ferencvárosi rendelőintézet,47.476723,19.074856,,,,1.0,-119.0
008518,Tímár utca,47.533275,19.043766,,,,2.0,
008519,Tímár utca,47.533299,19.043582,,,,1.0,-146.0
008520,Szentlélek tér,47.539343,19.047088000000002,,,,2.0,
008521,Serfőző utca,47.538309000000005,19.046968,,,,1.0,178.0
008535,Cinkotai autóbuszgarázs,47.498185,19.237392,,,,1.0,60.0
008543,Szépvölgyi út,47.52867,19.04046,,,,2.0,
008544,Szépvölgyi út,47.527615000000004,19.040036999999998,,,,1.0,-168.0
008545,Puskás Ferenc Stadion,47.500105,19.107013000000002,,,,1.0,-97.0
008546,Boráros tér,47.479738,19.067812,,,,2.0,168.0
008548,"Gyál, Bem József utca",47.372917,19.216769,,,,1.0,132.0
008549,Kisfaludy Sándor utca,47.375008,19.213611,,,,2.0,134.0
008550,Toldiiklós utca,47.377334000000005,19.210016,,,,2.0,133.0
008551,Bacsó Béla utca,47.379533,19.206672,,,,1.0,133.0
008552,Erdősor utca,47.383055999999996,19.201876000000002,,,,2.0,-138.0
008553,Bajcsy-Zsilinszky utca,47.385653000000005,19.204449,,,,2.0,135.0
008559,Korompai utca,47.48486,19.012485,,,,1.0,-97.0
008560,Korompai utca,47.484789,19.012843,,,,1.0,83.0
008567,Gazdagréti tér,47.473277,18.99278,,,,1.0,63.0
008569,Cinkotai autóbuszgarázs,47.498194,19.237085999999998,,,,2.0,-121.0
008575,Távíró utca,47.461082,19.119025,,,,1.0,41.0
008577,Rákoshegy vasútállomás,47.467934,19.244806,,,,1.0,-82.0
008587,Gyáli út,47.456472,19.111009,,,,2.0,-103.0
008588,Gyáli út,47.456293,19.110359,,,,2.0,77.0
008589,Gyáli út,47.46601,19.103474,,,,1.0,-38.0
008590,Szent Gellért tér -űegyetem,47.483337,19.053085999999997,,,,1.0,-148.0
008591,Szent Gellért tér -űegyetem,47.483616,19.053537,,,,1.0,35.0
008593,Móricz Zsigmond körtér,47.476836,19.047188000000002,,,,1.0,-174.0
008597,Sport utca,47.455942,18.948107999999998,,,,1.0,175.0
008598,Baross utca,47.460313,18.958510999999998,,,,1.0,-9.0
008605,Kolosy tér,47.527543,19.036916,,,,1.0,96.0
008642,Székesdűlő,47.611641,19.105779000000002,,,,1.0,56.0
008643,Székesdűlő,47.61094,19.103504,,,,1.0,-119.0
008644,Vízművek,47.599539,19.092791000000002,,,,2.0,34.0
008645,Vízművek,47.600312,19.09331,,,,2.0,-147.0
008646,Áruházi bekötőút,47.386509999999994,19.02263,,,,1.0,-119.0
008647,Áruházi bekötőút,47.386519,19.023121,,,,1.0,64.0
008649,"Székesdűlő, ipartelep",47.615137,19.109254999999997,,,,2.0,22.0
008650,"Székesdűlő, ipartelep",47.61475,19.108806,,,,2.0,-158.0
008651,Auchan Sziget áruház,47.384361,19.02581,,,,1.0,153.0
008652,Auchan Sziget áruház,47.384163,19.025969,,,,1.0,153.0
008670,Auchan Liget,47.541205,19.24703,,,,2.0,135.0
008681,Hidegkuti Nándor Stadion,47.490533,19.110469000000002,,,,2.0,
008684,Albertfalva kitérő,47.452693,19.038524,,,,2.0,-168.0
008685,Albertfalva kitérő,47.452801,19.038960999999997,,,,2.0,9.0
008692,Felsőcsatári köz,47.458756,19.177096,,,,1.0,-173.0
008694,Köztelek utca,47.486933,19.067178,,,,2.0,122.0
008697,Újpest-központ,47.560733,19.090125,,,,1.0,27.0
008702,Ferencvárosi rendelőintézet,47.477154999999996,19.075785,,,,2.0,134.0
008708,Vízművek lakótelep,47.597822,19.091606,,,,2.0,22.0
008724,Albertirsai út,47.500873999999996,19.116122,,,,2.0,
008725,Puskás Ferenc Stadion,47.499864,19.104836,,,,1.0,-115.0
008731,Budagyöngye,47.516073999999996,18.998922,,,,2.0,117.0
008736,Dániel út,47.512863,18.994978,,,,2.0,-57.0
008737,Dániel út,47.512881,18.994739000000003,,,,2.0,125.0
008740,Újbuda-központ,47.474683,19.046385,,,,1.0,-166.0
008750,Batthyány tér,47.505696,19.039323,,,,1.0,176.0
008754,Pestszentimre vasútállomás (Dózsa Gy.u.),47.403586,19.185688,,,,2.0,50.0
008770,Puskás Ferenc Stadion,47.499864,19.104507,,,,2.0,
008772,Pestszentlőrinc vasútállomás,47.454622,19.181767,,,,1.0,122.0
008775,Ilonatelep,47.525831,19.228645999999998,,,,2.0,46.0
008782,Blaha Lujza tér,47.496844,19.069066,,,,1.0,-107.0
008785,Puskás Ferenc Stadion,47.499936,19.105237,,,,2.0,
008788,Kőérberek,47.445299,18.999585,,,,2.0,-92.0
008789,Kőérberek,47.445218,19.000035999999998,,,,2.0,88.0
008793,Regényes utca,47.429435999999995,19.020657999999997,,,,2.0,-172.0
008801,Savoya Park,47.436482,19.040103,,,,1.0,
008802,Savoya Park,47.435846999999995,19.042385,,,,1.0,-70.0
008832,Szakorvosi rendelőintézet,47.443871,19.181125,,,,2.0,31.0
008841,Íves út,47.592824,19.107979,,,,1.0,60.0
008842,Íves út,47.592582,19.10665,,,,1.0,-119.0
008844,Egressy út / Vezér utca,47.519259999999996,19.126312,,,,1.0,-142.0
008846,Méhecske utca,47.448032,18.947797,,,,2.0,176.0
008847,Méhecske utca,47.447979,18.94797,,,,2.0,-5.0
008850,Mikszáth Kálmán utca,47.451162,19.176781,,,,2.0,-58.0
008863,Gőzmozdony utca,47.470028000000006,19.157173,,,,1.0,-143.0
008864,Savoya Park,47.435990999999994,19.041549,,,,1.0,106.0
008893,Csepeli átjáró,47.436339000000004,19.092257,,,,2.0,-96.0
008894,Vízisport utca,47.433997,19.091263,,,,2.0,166.0
008895,Teremszeg utca,47.432951,19.092221,,,,2.0,163.0
008896,Pesterzsébet vasútállomás,47.433417,19.096414000000003,,,,2.0,85.0
008898,Szakorvosi rendelő,47.440886,19.101779999999998,,,,2.0,-38.0
008900,Göncz Árpád városközpont,47.531904,19.066157999999998,,,,1.0,-164.0
008903,Szentmihályi út,47.541348,19.15194,,,,1.0,62.0
008904,Kétújfalu utca,47.419522,19.209134,,,,2.0,33.0
008910,"Káposztásmegyer,ogyoródi-patak",47.598321,19.121429,,,,2.0,101.0
008911,Homoktövis iskola,47.597226,19.117132,,,,1.0,49.0
008912,Hidegkuti Nándor Stadion,47.490255,19.110147,,,,1.0,81.0
008915,Jászberényi út /aglódi út,47.490345,19.148417000000002,,,,1.0,
008916,Kőbányai garázs,47.490648,19.114424,,,,2.0,-98.0
008917,Kőbányai garázs,47.490684,19.113853,,,,2.0,82.0
008918,"Budatétény, benzinkút",47.4301,19.003628,,,,2.0,-156.0
008919,Pongrátz Gergely tér,47.509771,19.128546,,,,1.0,-49.0
008921,Dél-pesti autóbuszgarázs,47.426582,19.161020999999998,,,,2.0,125.0
008922,Gyula vezér út,47.409242,19.003434,,,,2.0,-133.0
008923,Kabai utca,47.495703999999996,19.160464,,,,1.0,-45.0
008924,Kabai utca,47.495533,19.160424,,,,1.0,135.0
008939,Békásmegyer,47.598408,19.054259,,,,1.0,25.0
008940,Békásmegyer,47.598633,19.054085999999998,,,,2.0,-89.0
008941,Váci út,47.561294000000004,19.079376,,,,1.0,-75.0
008942,Örs vezér tere,47.503215999999995,19.137570999999998,,,,1.0,86.0
008943,"Budatétény, benzinkút",47.431018,19.004423000000003,,,,2.0,21.0
008944,Újpest-városkapu,47.556577000000004,19.076558,,,,1.0,17.0
008945,Újpest-városkapu,47.558091999999995,19.076836,,,,1.0,-164.0
008946,Szénás utca,47.527547999999996,19.181565,,,,1.0,56.0
008947,Szlovák út,47.530956,19.189157,,,,1.0,57.0
008948,Kucorgó tér,47.469303000000004,19.29515,,,,2.0,170.0
008949,Pestszentimre vasútáll. (Nagykőrösi út),47.403412,19.18662,,,,1.0,137.0
008950,Pestszentimre vasútáll. (Nagykőrösi út),47.404303000000006,19.185682,,,,1.0,-40.0
008951,Béke tér,47.430019,19.215675,,,,2.0,-66.0
008952,Terv utca,47.408,19.001541,,,,1.0,-132.0
008953,Csillag utca,47.409214,19.119,,,,2.0,174.0
008954,Csillag utca,47.409565,19.119053,,,,2.0,-8.0
008955,Gombosszeg köz,47.413107000000004,19.118351999999998,,,,1.0,-169.0
008956,Gombosszeg köz,47.413574,19.118578,,,,2.0,-49.0
008957,Előd utca,47.418566999999996,19.117365,,,,1.0,142.0
008958,Alsó határút,47.416534000000006,19.116568,,,,2.0,24.0
008959,Templom utca 6.,47.408876,19.11362,,,,2.0,167.0
008960,Gyáli-patak,47.394698,19.11657,,,,2.0,-145.0
008961,"Soroksár,ősök tere",47.399339000000005,19.116483,,,,2.0,74.0
008962,Szent István utca,47.392297,19.115202,,,,2.0,24.0
008963,Grassalkovich út,47.390505,19.118896,,,,2.0,153.0
008964,Tartsay utca,47.421259,19.127136,,,,1.0,50.0
008965,Szent László utca,47.421186999999996,19.126870999999998,,,,1.0,-132.0
008966,Szentlőrinci úti lakótelep,47.417227000000004,19.131104999999998,,,,1.0,-39.0
008967,Szentlőrinci úti lakótelep,47.416957000000004,19.131198,,,,1.0,138.0
008971,Gyula vezér út,47.409628999999995,19.004123,,,,1.0,34.0
009000,Kistarcsa,47.545503000000004,19.259839000000003,,,,2.0,48.0
009001,Kistarcsa,47.545584000000005,19.259693,,,,2.0,-132.0
009002,Kerepes,47.552440999999995,19.270507000000002,,,,2.0,47.0
009003,Kerepes,47.551324,19.268897,,,,2.0,-132.0
009004,Szilasligeti elágazás,47.560201,19.283112,,,,2.0,43.0
009005,"Kerepes, Szabadság útja",47.560786,19.282783,,,,2.0,136.0
009006,Szilasligeti elágazás,47.560766,19.2837,,,,2.0,-129.0
009007,"Szilasliget, Posta",47.56955,19.272176,,,,2.0,43.0
009008,"Szilasliget, Posta",47.569882,19.27243,,,,2.0,-134.0
009009,"Szilasliget, Wesselényi utca",47.573116999999996,19.269226999999997,,,,2.0,-45.0
009010,"Szilasliget, Wesselényi utca",47.572955,19.26924,,,,2.0,135.0
009011,"Szilasliget, Szondi utca",47.575272999999996,19.266059,,,,2.0,-44.0
009012,"Szilasliget, Szondi utca",47.575382,19.265687,,,,2.0,135.0
009013,"Szilasliget, Kemping",47.578226,19.261132999999997,,,,2.0,125.0
009014,EGIS-telep (Szentjakab),47.592911,19.284773,,,,2.0,-61.0
009015,EGIS-telep (Szentjakab),47.592495,19.285583,,,,2.0,119.0
009016,"Gödöllő, Szökőkút",47.599126,19.346731,,,,2.0,137.0
009017,"Gödöllő, Szabadság tér",47.599243,19.346771,,,,2.0,-43.0
009018,"Gödöllő, Szabadság tér",47.59805,19.349038,,,,2.0,48.0
009019,"Gödöllő, Palotakert",47.598734,19.355678,,,,2.0,120.0
009020,"Gödöllő, Palotakert",47.598679,19.356116,,,,2.0,-47.0
009021,Gödöllő,47.590596999999995,19.358893,,,,2.0,
009022,Mogyoród,47.595557,19.271513,,,,2.0,-51.0
009025,Zichy Jenő utca,47.505192,19.057853,,,,1.0,-47.0
009026,Zichy Jenő utca,47.505246,19.057588,,,,1.0,136.0
009031,"Margit híd, budai hídfő",47.514834,19.035829999999997,,,,1.0,-162.0
009039,Csanády utca (Lehel tér),47.51585,19.058891,,,,1.0,116.0
009041,Haller utca / Soroksári út,47.475726,19.069363,,,,1.0,-20.0
009042,Haller utca / Soroksári út,47.475446999999996,19.069562,,,,1.0,149.0
009047,Homoktövis utca,47.594691999999995,19.113273,,,,1.0,15.0
009065,"Solymár, Szarvas",47.596321,18.973591,,,,2.0,-87.0
009066,"Solymár, Szarvas",47.596178,18.974455,,,,2.0,93.0
009067,"Solymár, Auchan áruház",47.597798,18.963376,,,,2.0,
009072,AsiaCenter,47.548412,19.146959,,,,1.0,-86.0
009074,Használtcikk piac,47.43551,19.145159,,,,1.0,-37.0
009085,Budaörs vasútállomás,47.448190000000004,18.964863,,,,2.0,-94.0
009094,Petőfi Sándor utca,47.402451,18.937042,,,,1.0,-44.0
009095,Pacsirta utca,47.404562,18.933977,,,,1.0,-44.0
009096,Pacsirta utca,47.404616,18.933765,,,,2.0,136.0
009097,Nóra utca,47.407239000000004,18.930884,,,,2.0,-22.0
009098,Nóra utca,47.407275,18.930738,,,,2.0,158.0
009099,Katinka utca,47.410428,18.926876,,,,2.0,-43.0
009100,Katinka utca,47.410123,18.927181,,,,2.0,137.0
009101,Tátika utca,47.412859999999995,18.930262,,,,2.0,52.0
009102,Tátika utca,47.412824,18.929984,,,,2.0,-128.0
009103,Valéria utca,47.414113,18.93283,,,,2.0,56.0
009104,Valéria utca,47.414086,18.932617999999998,,,,2.0,-123.0
009105,"Diósd, Búzavirág utca",47.416567,18.934213,,,,2.0,
009119,Szentendre,47.659618,19.074522,,,,1.0,-147.0
009137,Újmajori utca,47.471697,19.220067,,,,1.0,-155.0
009138,Csillagmotor köz,47.471018,19.221892999999998,,,,2.0,-64.0
009139,Dedics Ferenc utca,47.469097,19.226094,,,,1.0,124.0
009140,Ősrepülő utca,47.469552,19.227168,,,,2.0,-149.0
009145,Haller utca /ester utca,47.475966,19.077802,,,,2.0,-28.0
009146,Vágóhíd utca,47.473628000000005,19.079643,,,,1.0,-33.0
009147,Vörösmarty utca,47.419869,19.120348999999997,,,,1.0,49.0
009148,Szusza Ferenc Stadion,47.575796999999994,19.083759,,,,2.0,38.0
009153,Óbudai rendelőintézet,47.545359000000005,19.033751000000002,,,,1.0,
009154,Atlétikai stadion,47.572575,19.114429,,,,2.0,15.0
009155,Atlétikai stadion,47.572179999999996,19.11415,,,,2.0,-165.0
009160,Keleti pályaudvar,47.499449,19.083401000000002,,,,1.0,111.0
009161,Keleti pályaudvar,47.499431,19.084012,,,,1.0,88.0
009162,Keleti pályaudvar,47.499926,19.083216,,,,1.0,-118.0
009163,Keleti pályaudvar,47.499926,19.083586999999998,,,,1.0,-94.0
009166,Magdolna utca,47.492746999999994,19.087656,,,,1.0,
009170,"Pomáz, Dózsa György utca",47.64557,19.027226000000002,,,,1.0,-30.0
009171,"Pomáz, Dózsa György utca",47.645554,19.027001000000002,,,,1.0,161.0
009174,Széll Kálmán tér,47.507673,19.024894,,,,1.0,-80.0
009178,Bajza utca,47.514897,19.068025,,,,2.0,
009179,"Petőfi híd, budai hídfő",47.47678,19.058882999999998,,,,1.0,-125.0
009192,Kacsóh Pongrác utca,47.396467,19.208697,,,,2.0,171.0
009193,Kacsóh Pongrác utca,47.396853,19.208738,,,,1.0,-10.0
009194,"Gyál, Ady Endre utca",47.389932,19.217935,,,,1.0,134.0
009195,"Gyál, Ady Endre utca",47.390177,19.217708,,,,1.0,-46.0
009196,Széchenyi István utca,47.381846,19.230726999999998,,,,1.0,-45.0
009197,Bocskai István utca,47.383396999999995,19.228295000000003,,,,1.0,-46.0
009198,Dobó Katica utca,47.386832,19.222956,,,,1.0,-47.0
009199,Mátyás király utca,47.394709999999996,19.210532999999998,,,,1.0,133.0
009200,Mátyás király utca,47.394883,19.210398,,,,1.0,-47.0
009201,Tulipán utca,47.392573999999996,19.213824,,,,1.0,133.0
009202,Tulipán utca,47.392177000000004,19.214604,,,,1.0,-46.0
009203,"Gyál, Deák Ferenc utca",47.385265000000004,19.235533,,,,1.0,136.0
009204,Árpád utca,47.388079,19.231106,,,,1.0,136.0
009205,Dobó Katica utca,47.389747,19.228502,,,,1.0,133.0
009206,Táncsicsihály utca,47.392099,19.224843,,,,1.0,134.0
009207,Kossuth Lajos utca,47.391718,19.221172,,,,1.0,45.0
009208,"Pestszentlőrinc, Szarvas csárda tér",47.441357,19.18511,,,,1.0,20.0
009220,Móricz Zsigmond körtér,47.477499,19.048348999999998,,,,1.0,
009225,Noszlopy utca,47.471959000000005,19.148362,,,,2.0,-52.0
009234,Pestszentimre vasútállomás (Nemes utca),47.404517999999996,19.187166,,,,1.0,48.0
009238,Szent Korona utca,47.525692,19.169817000000002,,,,2.0,-34.0
009239,Csömöri út,47.528249,19.167313,,,,2.0,-33.0
009240,Sasvár utca,47.518294,19.180653,,,,2.0,143.0
009241,Margit utca,47.515079,19.185207000000002,,,,2.0,60.0
009243,Alsó határút,47.416222999999995,19.116187,,,,2.0,-153.0
009289,Gergely utca,47.468734000000005,19.154524,,,,2.0,-52.0
009290,Közvágóhíd,47.466702000000005,19.076032,,,,2.0,-118.0
009292,"Szigetszentmiklós, városháza",47.348602,19.044724,,,,1.0,-38.0
009295,Serfőző utca,47.539095,19.045373,,,,1.0,107.0
009301,Gárdonyi Géza utca,47.405402,18.947779999999998,,,,1.0,-128.0
009309,Deák Ferenc tér,47.497440000000005,19.055729,,,,1.0,-54.0
009310,Müpa - Nemzeti Színház,47.470275,19.074189,,,,1.0,-26.0
009311,"BILK, bekötőút",47.378957,19.129179,,,,2.0,-128.0
009312,MNB,47.376882,19.124303,,,,2.0,-42.0
009314,"BILK, DF épület",47.375229,19.120911,,,,2.0,47.0
009315,MNB,47.376675,19.124382,,,,2.0,138.0
009321,Keleti pályaudvar,47.499926,19.084198,,,,1.0,-91.0
009322,Örs vezér tere,47.50326,19.137956,,,,1.0,81.0
009337,Orbánhegyi dűlő,47.386327,19.110228,,,,2.0,-152.0
009338,Orbánhegyi dűlő,47.386390000000006,19.11048,,,,2.0,28.0
009339,Szent István utca,47.391083,19.114168,,,,2.0,-153.0
009349,Budaörsi repülőtér,47.447078999999995,18.986729999999998,,,,2.0,-88.0
009351,Kőérberek,47.446339,18.998545,,,,2.0,-83.0
009352,Kőérberek,47.446231,18.998784,,,,2.0,94.0
009353,Tippan utca,47.447967999999996,19.000851,,,,2.0,-105.0
009354,Tippan utca,47.447788,19.000374,,,,2.0,75.0
009355,Régi vám (Kánai út),47.446377000000005,19.003968,,,,2.0,-84.0
009356,Régi vám (Kánai út),47.446278,19.004075,,,,2.0,96.0
009358,Millenniumtelep,47.37962,19.104287,,,,2.0,-147.0
009359,Boráros tér,47.479684000000006,19.066539000000002,,,,2.0,102.0
009365,Zsil utca,47.482715999999996,19.062997,,,,1.0,131.0
009369,"Csepel,orgásztanya",47.388344000000004,19.103486,,,,1.0,-151.0
009372,"Pestszentlőrinc, Béke tér",47.429102,19.218511,,,,2.0,
009373,Hunyadvár utca,47.508153,19.192135999999998,,,,2.0,-20.0
009375,Szilas-patak,47.529297,19.185461,,,,1.0,58.0
009376,"Újpalota, Nyírpalota út",47.547013,19.142015,,,,1.0,120.0
009377,Jókaiór utca (Rendőrség),47.510358000000004,19.190456,,,,1.0,157.0
009379,József utca,47.53208,19.155893,,,,1.0,-136.0
009381,Rózsa utca,47.515819,19.155754,,,,1.0,57.0
009382,Jávorfa utca,47.526052,19.177918,,,,2.0,-124.0
009383,János utca,47.523533,19.172315,,,,2.0,-124.0
009412,Karolina út,47.473504999999996,19.034394,,,,1.0,106.0
009413,Ezredes utca,47.510057,19.021770999999998,,,,2.0,-37.0
009415,Sárfű utca,47.550059999999995,19.138067000000003,,,,2.0,-50.0
009420,Honvédkórház,47.531560999999996,19.070885999999998,,,,1.0,-135.0
009421,Ezred utca,47.606004,19.097598,,,,2.0,32.0
009422,Ezred utca,47.606849,19.098223,,,,2.0,-147.0
009425,Csonka János tér,47.470484,19.045299,,,,1.0,13.0
009426,Zugló vasútállomás,47.511873,19.099618,,,,1.0,42.0
009427,Kelenföldi autóbuszgarázs,47.473243,19.02959,,,,2.0,-105.0
009429,Keserűvíztelep (Bobpálya),47.454806,19.007542,,,,2.0,-172.0
009430,Keserűvíztelep (Bobpálya),47.45388,19.007516,,,,2.0,9.0
009431,Régi vám,47.446818,19.006063,,,,2.0,8.0
009438,"Budakeszi,onfoglalás sétány",47.517762,18.923668,,,,1.0,
009439,Zichy Péter utca,47.515575,18.922359,,,,1.0,23.0
009440,Zichy Péter utca,47.516133,18.92257,,,,2.0,-158.0
009442,Széchenyi utca (gimnázium),47.512067,18.928677,,,,2.0,-75.0
009443,Széchenyi utca (gimnázium),47.512028,18.927518,,,,2.0,103.0
009445,Tatárka utca,47.434041,19.021173,,,,2.0,-13.0
009446,Botond utca,47.403953,18.995789000000002,,,,2.0,-122.0
009447,Mátyás király utca,47.404446,18.991589,,,,2.0,10.0
009448,Görgey utca,47.406802,18.991613,,,,2.0,-18.0
009449,Török utca,47.411614,18.989898,,,,2.0,-23.0
009451,Gyűszű utca,47.417266,19.0224,,,,2.0,-131.0
009452,Húr utca,47.416159,19.020426,,,,2.0,-124.0
009453,Dévény utca,47.415224,19.022189,,,,2.0,43.0
009454,Wesselényi utca,47.415917,19.026059,,,,2.0,107.0
009455,Ostor utca,47.416544,19.029864,,,,1.0,20.0
009456,Római utca,47.41793,19.017589,,,,2.0,-38.0
009457,Római utca,47.417175,19.018319,,,,2.0,138.0
009458,Hűség utca,47.421208,19.013469,,,,1.0,-36.0
009459,Hűség utca,47.420528999999995,19.014023,,,,2.0,147.0
009460,Komáromi út,47.424593,19.010866,,,,2.0,-25.0
009461,Komáromi út,47.423955,19.011131,,,,2.0,154.0
009462,Tanító utca,47.435306,19.008724,,,,2.0,-59.0
009463,Tanító utca,47.435297,19.009784,,,,2.0,23.0
009465,Plébánia utca,47.429726,19.032323,,,,2.0,-14.0
009466,Plébánia utca,47.42969,19.032217000000003,,,,2.0,166.0
009467,Galamb utca,47.432765,19.028517,,,,2.0,-50.0
009468,Galamb utca,47.432711,19.028438,,,,2.0,130.0
009469,Alkotmány utca,47.43343,19.025932,,,,2.0,-59.0
009470,Alkotmány utca,47.433384999999994,19.025919000000002,,,,2.0,121.0
009471,Széchenyi utca,47.418185,19.032578,,,,2.0,24.0
009472,Promontor utca,47.418054999999995,19.027015,,,,1.0,-105.0
009473,Széchenyi utca,47.418464,19.032657,,,,2.0,-151.0
009474,Komló utca,47.421339,19.035137,,,,2.0,-150.0
009475,Méhész utca,47.438572,19.034695000000003,,,,2.0,155.0
009478,Szent Lőrinc-telep,47.432106,19.172929999999997,,,,2.0,
009479,Szent Lőrinc-telep,47.432106,19.173154999999998,,,,2.0,
009480,Margó Tivadar utca,47.433265000000006,19.177803,,,,1.0,51.0
009481,Kerékgyártó utca,47.521341,19.105562,,,,1.0,-67.0
009482,Kucorgó tér,47.469059,19.295984,,,,2.0,-89.0
009483,Rákoscsaba vasútállomás,47.491096999999996,19.281623,,,,1.0,-123.0
009484,Tura utca,47.4892,19.276864,,,,1.0,-117.0
009485,Rákoscsaba-Újtelep vasútállomás,47.488137,19.27329,,,,1.0,-110.0
009486,II. utca,47.486369,19.265893,,,,2.0,-102.0
009487,Rákosliget vasútállomás,47.486311,19.259071,,,,1.0,-81.0
009491,Füstifecske utca,47.478911,19.236966,,,,1.0,-75.0
009492,Füstifecske utca,47.478776,19.237123999999998,,,,1.0,105.0
009493,Uszoda,47.479619,19.232961,,,,1.0,-74.0
009494,"Újlak utca, lakótelep",47.482307,19.233674,,,,1.0,19.0
009495,Rákospatak utca,47.531434999999995,19.10066,,,,1.0,-155.0
009498,Csertő utca,47.511107,19.146099,,,,2.0,-136.0
009499,Csertő utca,47.511590999999996,19.147375,,,,2.0,45.0
009500,Körvasút sor,47.513666,19.15103,,,,2.0,55.0
009501,Körvasút sor,47.514609,19.152836999999998,,,,2.0,-126.0
009503,Kovácsi Kálmán tér,47.573171,19.12112,,,,2.0,31.0
009504,Kovácsi Kálmán tér,47.573431,19.1212,,,,2.0,-150.0
009506,Örs vezér tere,47.503624,19.137185000000002,009506,,CSLM2OVE,2.0,
009508,Orló utca,47.518254,19.007497,,,,1.0,-128.0
009509,Orló utca,47.518119,19.007404,,,,1.0,55.0
009510,Pasaréti út,47.516184,19.004033,,,,1.0,47.0
009511,Pasaréti út,47.516355,19.003967000000003,,,,1.0,-133.0
009512,Endrődi Sándor utca,47.521143,19.011996,,,,1.0,-130.0
009513,Bimbó út,47.519325,19.008996,,,,1.0,-112.0
009514,Bimbó út,47.519964,19.010576,,,,1.0,43.0
009515,Rákospalota-Újpest vasútállomás,47.566389,19.111644000000002,,,,1.0,-165.0
009516,Rákospalota-Újpest vasútállomás,47.566190999999996,19.111736999999998,,,,1.0,15.0
009520,Csörsz utca,47.49017,19.023466,,,,2.0,-83.0
009521,Csörsz utca,47.490044,19.023665,,,,2.0,97.0
009522,Sirály utca,47.490555,19.018489000000002,,,,2.0,-83.0
009524,Albertfalva vasútállomás,47.441881,19.032201999999998,,,,2.0,-36.0
009534,XIII. utca / Dózsa György út,47.411121,18.993728,,,,2.0,138.0
009536,"Káposztásmegyer,ogyoródi-patak",47.598690000000005,19.121323,,,,2.0,86.0
009537,Március 15. tér,47.491531,19.051322,,,,1.0,34.0
009538,Irány utca,47.540469,19.109767,,,,1.0,-48.0
009539,Boglár utca,47.594701,19.060994,,,,1.0,96.0
009540,Szilágyi Erzsébet fasor,47.515203,19.002149,,,,1.0,-132.0
009541,Ady Endre út,47.436278,19.035478,,,,2.0,-73.0
009543,513. utca,47.484291,19.230112,,,,1.0,88.0
009544,Robogó utca,47.487235,19.270088,,,,1.0,-114.0
009545,Csepel,47.421155999999996,19.06577,009545,,CSF04272,2.0,-149.0
009546,Memento Park,47.425665,19.001313,,,,1.0,143.0
009548,Tatárka utca,47.433933,19.021079999999998,,,,2.0,170.0
009549,Madárdomb köz,47.478138,19.241221,,,,2.0,-74.0
009550,Madárdomb köz,47.478014,19.241141,,,,2.0,106.0
009551,Margó Tivadar utca,47.433122999999995,19.176437,,,,1.0,-109.0
009554,"Óbuda, Bogdáni út",47.550028000000005,19.041176,,,,1.0,-82.0
009555,Szilágyi utca,47.570571,19.112699,,,,1.0,-70.0
009557,Vécsey Károly utca,47.571892,19.096021,,,,1.0,33.0
009558,Szent János Kórház,47.509962,19.009919,,,,1.0,-92.0
009563,Mészkő utca,47.579237,19.034843,,,,2.0,64.0
009564,Mészkő utca,47.579128999999995,19.034311,,,,2.0,-124.0
009566,"Soroksár, Auchan áruház",47.417204,19.158231,,,,1.0,50.0
009568,Sósmocsár út,47.414781,19.134154000000002,,,,2.0,-41.0
009569,Thököly út,47.441995,19.180979999999998,,,,1.0,121.0
009570,Újbuda-központ,47.474163,19.04705,,,,1.0,-82.0
009572,Bagaria utca,47.590241999999996,19.08313,,,,2.0,-140.0
009573,Bagaria utca,47.590307,19.083674,,,,1.0,46.0
009574,Ungvári utca,47.587511,19.082244,,,,2.0,3.0
009575,Ungvári utca,47.587265,19.082038,,,,2.0,-177.0
009576,Rév utca,47.58481,19.081823999999997,,,,2.0,-177.0
009577,Savoya Park,47.436585,19.03968,,,,1.0,
009578,Savoya Park,47.436656,19.039269,,,,1.0,
009581,Gábor Áron utca,47.514978,19.002123,,,,1.0,47.0
009582,János tér,47.442019,19.102563,,,,2.0,-40.0
009584,Békásmegyer,47.597444,19.055543,,,,1.0,23.0
009585,"Nagytétény, Erdélyi utca",47.388125,18.970426999999997,,,,2.0,-78.0
009586,Baross utca,47.436417,19.098832,,,,2.0,145.0
009587,Gogol utca,47.520447,19.05698,,,,1.0,109.0
009588,Kuruclesi út,47.518001,18.985232,,,,1.0,-72.0
009592,Kőbánya-Kispest,47.464209999999994,19.145941,,,,1.0,-67.0
009624,"Maglód, Auchan áruház",47.46069,19.335221,,,,2.0,
009625,Szigetcsép utca,47.464407,19.312714,,,,1.0,-90.0
009630,"Budakalász, Auchan áruház",47.611518,19.062395000000002,009630,,CS009630,2.0,-162.0
009631,Gergely utca 80.,47.474086,19.144346,,,,2.0,-49.0
009632,Nagykőrösi út /atár út,47.456381,19.114232,,,,2.0,102.0
009633,"Budakalász, Auchan áruház",47.611513,19.062334,009633,,CS009630,2.0,-152.0
009634,Cinkotai autóbuszgarázs (kapu),47.498634,19.237645999999998,,,,,
009636,Kelenföldi autóbuszgarázs (kapu),47.473264,19.029397,,,,,
009637,Óbudai autóbuszgarázs (Pomázi kapu),47.568220000000004,19.02777,,,,,
009638,Kőbányai garázs (Salgótarjáni kapu),47.491008,19.114239,009638,,CS074021,,
009645,Zugló kocsiszín (kapu),47.518909,19.112582999999997,,,,,
009652,Széchenyi út,47.545721,19.112403,,,,1.0,-137.0
009659,Mélyfúró utca,47.57759,19.129699,,,,2.0,129.0
009667,Újbuda-központ,47.474064,19.048204000000002,,,,1.0,
009675,Clark Ádám tér,47.497665000000005,19.041541,,,,1.0,-18.0
009676,Clark Ádám tér,47.497359,19.041594,,,,1.0,160.0
009684,"Városközpont, Posta",47.478941,19.256176,,,,1.0,-158.0
009685,Akácvirág utca,47.477351,19.255241,,,,1.0,-162.0
009691,Flórián tér,47.539901,19.042054,,,,1.0,122.0
009692,Szentlélek tér,47.539892,19.046769,,,,2.0,-21.0
009693,Kolosy tér,47.527678,19.036823000000002,,,,2.0,-84.0
009698,Galántai utca,47.49837,19.015183,,,,1.0,-77.0
009699,Galántai utca,47.498245000000004,19.015329,,,,1.0,104.0
009702,Magdolna utca,47.492954,19.087179000000003,,,,1.0,
009703,Közvágóhíd,47.467702,19.076549,009703,,CS009703,1.0,-28.0
009704,Jászivány utca,47.495409,19.275378,,,,1.0,-49.0
009705,Diadal utca (Tura utca),47.49439,19.272268,,,,1.0,-120.0
009706,XVII. utca,47.491597999999996,19.259995,,,,1.0,-170.0
009707,Aranykút utca,47.493794,19.278001,,,,2.0,129.0
009708,Rákoscsaba vasútállomás,47.491547,19.281876999999998,,,,1.0,135.0
009709,Újbuda-központ,47.474413,19.045456,,,,1.0,
009715,Zodony utca,47.430372,19.099913,,,,2.0,139.0
009716,Pesterzsébet vasútállomás,47.433495,19.09594,,,,2.0,-95.0
009717,Zamárdi utca,47.434221,19.093288,,,,2.0,-107.0
009718,Vízisport utca,47.434523999999996,19.091361,,,,2.0,9.0
009719,Csepeli átjáró,47.436365,19.093238,,,,2.0,79.0
009728,Zsigmond utca,47.464014,19.318341,,,,2.0,75.0
009729,Zsigmond utca,47.464016,19.317704,,,,2.0,-105.0
009730,Széll Kálmán tér,47.506646999999994,19.023912,,,,1.0,-43.0
009743,Sirály utca,47.490376,19.019617,,,,2.0,96.0
009747,"Ezred utca, lakótelep",47.609052,19.101471,,,,2.0,-57.0
009748,Európa Center,47.60521,19.103768,,,,2.0,32.0
009753,Blaha Lujza tér,47.495999,19.071282999999998,,,,2.0,-71.0
009763,Zsófialiget,47.548044,19.263894,,,,2.0,47.0
009764,Zsófialiget,47.547897999999996,19.263369,,,,2.0,-133.0
009774,Jászberényi út /aglódi út,47.489886,19.148827999999998,,,,1.0,
011313,Szent László utca,47.405823,18.999264,,,,1.0,146.0
011316,Atlétikai stadion,47.572468,19.113937,,,,2.0,
011317,Atlétikai stadion,47.572108,19.11395,,,,2.0,
011320,Búza utca,47.553437,19.040325,,,,1.0,13.0
011321,Búza utca,47.55189,19.039647,,,,1.0,-170.0
011322,"Óbuda, Bogdáni út",47.54983,19.041189000000003,,,,1.0,98.0
011327,Budaörsi Ipari és Technológiai Park,47.46331,18.894407,,,,2.0,-7.0
011495,Kék Golyó utca,47.497895,19.019895,,,,1.0,-100.0
011715,509. utca,47.484963,19.225442,,,,2.0,-78.0
011722,"Rákoskeresztúr, városközpont",47.479663,19.254959,,,,1.0,
011723,"Rákoskeresztúr, városközpont",47.479535999999996,19.255542000000002,,,,1.0,103.0
011724,"Rákoskeresztúr, városközpont",47.479372999999995,19.256098,,,,1.0,130.0
011725,"Rákoskeresztúr, városközpont",47.479815,19.255330999999998,,,,1.0,-134.0
011726,"Rákoskeresztúr, városközpont",47.479942,19.254761,,,,1.0,-102.0
011732,Deák Ferenc tér,47.499203,19.053804,,,,1.0,-97.0
011762,Újpest-városkapu,47.559059000000005,19.078791,,,,1.0,4.0
011765,Boráros tér,47.47927,19.067785999999998,,,,2.0,-6.0
011768,"Rákoscsaba-Újtelep, Tóalmás utca",47.499280999999996,19.286785000000002,,,,2.0,19.0
011773,Keresztúri út,47.484645,19.22775,,,,2.0,-78.0
016725,Rózsaliget,47.466582,19.158453,,,,2.0,-51.0
016727,Újbuda-központ,47.474649,19.046771,,,,1.0,14.0
016729,Naphegy tér,47.49349,19.032783,,,,1.0,-72.0
016764,Kalotaszeg utca,47.458825,19.041134,,,,2.0,13.0
019313,Rákoskert vasútállomás,47.457296,19.295147,,,,1.0,71.0
019314,Schell Gyuláné tér,47.459787,19.299349,,,,2.0,160.0
019316,Rákoscsaba vasútállomás,47.491014,19.282870000000003,,,,1.0,4.0
022005,Tölgy utca,47.41637,19.205427,,,,1.0,-133.0
022006,Szenes Iván tér,47.47999,19.095703,,,,2.0,119.0
030328,"Soroksár,ősök tere",47.399367,19.115423,,,,1.0,
031884,"Nagykovácsi, Tisza István tér",47.575789,18.879510999999997,,,,1.0,
036236,Szigetszentmiklós,47.345454,19.048205,,,,1.0,35.0
036678,Széll Kálmán tér,47.50671,19.02524,,,,1.0,38.0
037379,Batthyány tér,47.506209000000005,19.038447,,,,1.0,1.0
037747,"Lakihegy, Cseresznyés utca",47.377332,19.007248,,,,1.0,38.0
037748,"Lakihegy, Cseresznyés utca",47.376792,19.006348000000003,,,,1.0,-132.0
038670,Kőbánya-Kispest,47.462337,19.14859,,,,1.0,109.0
038671,Kőbánya-Kispest,47.462344,19.148344,,,,1.0,-168.0
038674,Kőbánya-Kispest,47.462973999999996,19.147562,,,,1.0,110.0
038675,Kőbánya-Kispest,47.463190999999995,19.146979,,,,1.0,-95.0
038678,Kőbánya-Kispest,47.463037,19.147748,,,,1.0,-78.0
038680,Kőbánya-Kispest,47.462928999999995,19.148252,,,,1.0,-75.0
038681,Kőbánya-Kispest,47.462796000000004,19.148789999999998,,,,1.0,-106.0
038682,Kőbánya-Kispest,47.462912,19.149201,,,,1.0,92.0
038683,Kőbánya-Kispest,47.462976,19.148644,,,,1.0,17.0
038686,Kőbánya-Kispest,47.46346,19.147245,,,,1.0,-89.0
038687,Kőbánya-Kispest,47.463307,19.147921,,,,1.0,-77.0
038688,Kőbánya-Kispest,47.463226,19.148266,,,,1.0,-65.0
038690,Kőbánya-Kispest,47.463081,19.148942,,,,1.0,
038692,Kőbánya-Kispest,47.462517,19.148683,,,,1.0,
038717,Deák Ferenc tér,47.499032,19.054029999999997,,,,1.0,59.0
038791,Kőbánya alsó vasútállomás,47.483103,19.128249,,,,2.0,118.0
040525,Hentes utca,47.462276,19.084570000000003,,,,1.0,149.0
040526,Hentes utca,47.4626,19.084411,,,,1.0,-30.0
040590,FESTO,47.564153000000005,19.030594,,,,2.0,
040591,FESTO,47.564606,19.030822,,,,1.0,
040608,Zsivora park,47.509134,19.148798,,,,1.0,-32.0
040609,Szent Imre tér,47.431779999999996,19.067901000000003,,,,1.0,3.0
040612,Bányató utca,47.466331,19.165078,,,,2.0,55.0
040762,Határ út,47.465339,19.127838,,,,2.0,-62.0
040763,Határ út,47.465069,19.128275,,,,2.0,113.0
040789,Kerékgyártó utca,47.520990000000005,19.106438,,,,1.0,115.0
041071,Nagyvárad tér,47.479202,19.088416,,,,2.0,
041092,Csepeli Kórház,47.424622,19.058674,,,,2.0,-48.0
041093,Duna utca,47.428215,19.059125,,,,2.0,35.0
041094,Színesfém utca,47.430535,19.0646,,,,2.0,94.0
041095,Szent Imre tér,47.432046,19.067318,,,,2.0,93.0
041139,Mázsa utca,47.483115000000005,19.122863,,,,1.0,
041140,Mázsa utca,47.48298,19.122823,,,,1.0,
041207,"Rákospalota, Kossuth utca",47.56791,19.125706,,,,1.0,87.0
041209,Boráros tér,47.479333000000004,19.066923000000003,,,,2.0,93.0
042797,Bányató utca,47.465434,19.162927,,,,2.0,-126.0
042934,"Soroksár, BILK",47.378287,19.121299,,,,2.0,-64.0
043154,Dél-pesti autóbuszgarázs (kapu),47.426902,19.160697,,,,,
043176,Kőbánya-Kispest,47.461923,19.149332,,,,2.0,-146.0
043191,Bosnyák tér,47.519332,19.112783,,,,1.0,
043192,Kisvárda utca,47.471587,19.282412,,,,1.0,-81.0
043193,Kisvárda utca,47.471323999999996,19.283632,,,,1.0,92.0
043331,Szentlőrinci úti lakótelep,47.417184999999996,19.130751999999998,,,,2.0,42.0
043333,Szent Orbán tér,47.498503,19.008136,,,,2.0,-178.0
043341,György utca,47.53094,19.171560999999997,,,,1.0,-35.0
043342,Régi Fóti út,47.559188,19.122464,,,,1.0,-48.0
043343,Csörsz utca,47.49062,19.02465,,,,1.0,-8.0
043481,"Káposztásmegyer, Aquaworld",47.599639,19.112654,,,,1.0,-140.0
043548,Csaba vezér tér,47.487256,19.286582,,,,2.0,-35.0
043554,Enying utca,47.475377,19.297911,,,,2.0,-40.0
043555,Sport tér,47.477046,19.295809,,,,2.0,-41.0
043556,Rés utca,47.480202,19.29187,,,,2.0,-42.0
043571,Dukát utca,47.408304,18.991015,,,,2.0,-5.0
043746,Kőbányai garázs (Pongrácz kapu),47.49239,19.119545000000002,,,,,
043955,Óbudai autóbuszgarázs (Törökkő kapu),47.56689,19.031889000000003,,,,,
044029,Fenyőgyöngye,47.540451000000004,19.006603,,,,2.0,38.0
044032,"Szigetszentmiklós, városháza",47.348053,19.04487,,,,1.0,155.0
044033,József Attila utca,47.338021999999995,19.039575,,,,1.0,89.0
044034,József Attila utca,47.338114000000004,19.038215,,,,2.0,-49.0
044076,Déli utca,47.423173,19.061198,,,,1.0,-46.0
044115,Pöttyös utca,47.468484000000004,19.116055,,,,2.0,-170.0
044125,Cinkota,47.520032,19.220579999999998,,,,2.0,-61.0
044126,Száva kocsiszín,47.466764000000005,19.123039000000002,,,,1.0,-62.0
044127,Száva kocsiszín,47.46642,19.123095000000003,,,,2.0,118.0
044128,Valéria tér,47.465707,19.115410999999998,,,,1.0,-162.0
044129,Napfény utca,47.458582,19.11445,,,,2.0,-166.0
044130,Madzsar József utca / Pünkösdfürdő utca,47.595572,19.054226,,,,2.0,26.0
044131,Madzsar József utca / Pünkösdfürdő utca,47.595527000000004,19.054026,,,,2.0,-154.0
044135,Íves út,47.593086,19.107022,,,,1.0,-29.0
044178,Szent Gellért-templom,47.469358,19.025906,,,,2.0,57.0
044180,Nyugati pályaudvar,47.511337,19.056712,,,,2.0,
044192,Békásmegyer,47.597856,19.053867,,,,2.0,-152.0
044214,Cinkota,47.520016999999996,19.218588,044214,,CS044214,2.0,
044216,Mogyoród,47.595962,19.271682000000002,044216,,CSF04668,2.0,16.0
044301,Orczy tér (Baross kocsiszín),47.489477,19.090708,,,,2.0,95.0
044369,Ráckeve,47.175605,18.941796,,,,2.0,
044371,"Budakeszi, Tesco áruház",47.500234000000006,18.916821,,,,2.0,41.0
044372,"Solymár, Kerekhegy",47.581449,18.92642,,,,2.0,-122.0
044375,"Budaliget, Géza fejedelem útja",47.567607,18.936286,,,,2.0,65.0
044380,Dózsa György tér,47.507193,18.922432,,,,2.0,-112.0
044381,Dózsa György tér,47.50704,18.922366,,,,2.0,68.0
044382,"Budakeszi, Tiefenweg utca",47.503935,18.921006,,,,1.0,178.0
044383,"Budakeszi, Tiefenweg utca",47.503557,18.921167,,,,1.0,8.0
044388,"Soroksár, Auchan áruház",47.419788,19.155599,,,,1.0,-15.0
044511,"Solymár, PEMÜ",47.597409000000006,18.92824,,,,2.0,30.0
044554,Deák Ferenc tér,47.496404999999996,19.057068,,,,1.0,121.0
044557,"Újpest, Árpád út hajóállomás",47.562796,19.078314000000002,,,,1.0,-169.0
044576,"Újpest, Árpád út",47.561987,19.077768,,,,1.0,
044581,Meder utca,47.549847,19.067320000000002,,,,1.0,80.0
044583,Népfürdő utca / Árpád híd,47.537643,19.058218,,,,1.0,-2.0
044589,Jászaiari tér (Margit híd),47.515158,19.046902,,,,1.0,16.0
044590,Batthyány tér,47.504671,19.039868,,,,2.0,23.0
044591,Petőfi tér (Erzsébet híd),47.493608,19.049265,,,,1.0,-52.0
044592,Szent Gellért tér -űegyetem,47.484677000000005,19.053431,,,,2.0,-22.0
044593,Boráros tér,47.479999,19.065172,,,,1.0,-55.0
044594,Egyetemváros - A38,47.476760999999996,19.063168,,,,1.0,-25.0
044595,Haller utca,47.474665,19.06866,,,,1.0,-35.0
044596,Kopaszi-gát - BudaPart,47.46772,19.064717,,,,2.0,-45.0
044601,"Solymár, Auchan áruház",47.598851,18.962065,,,,1.0,-157.0
044602,"Solymár, temető",47.594947999999995,18.940929999999998,,,,1.0,67.0
044603,"Solymár, temető",47.595001,18.940212,,,,1.0,-105.0
044637,Görögkatolikus templom,47.423117,19.078035999999997,,,,1.0,5.0
044638,Görögkatolikus templom,47.424034000000006,19.077997,,,,1.0,-176.0
045755,Maros utca,47.418292,19.138131,,,,1.0,49.0
045883,"Fót, Auchan áruház",47.580948,19.161548,,,,1.0,43.0
047670,Budakeszi temető,47.514029,18.923053,,,,2.0,-79.0
047875,Orczy tér (Baross kocsiszín),47.489544,19.090388,,,,2.0,-74.0
047985,Szőlőskert utca,47.502140000000004,18.916538,,,,2.0,-149.0
048277,Kőbánya alsó vasútállomás,47.483123,19.127809,,,,2.0,-16.0
048302,Diósdi út,47.433749,18.925165,,,,2.0,118.0
048303,Diósdi út,47.433937,18.924939000000002,,,,2.0,-59.0
048304,Liliom utca,47.431484999999995,18.927729,,,,2.0,151.0
048305,Liliom utca,47.430955,18.92834,,,,2.0,-33.0
048471,Pasaréti tér,47.523609,18.994082000000002,,,,1.0,112.0
048505,Szent István Bazilika,47.500687,19.054694,,,,1.0,-179.0
048506,Szent István Bazilika,47.500273,19.055025,,,,1.0,0.0
048519,"Rákospalota, Kossuth utca",47.568484999999995,19.125534,,,,1.0,114.0
048536,Lehel tér,47.517759000000005,19.060445,,,,2.0,
048621,Széna tér tároló,47.508681,19.027707999999997,,,,1.0,
049170,Szent István utca,47.391218,19.114446,,,,2.0,27.0
049171,Zsellér dűlő,47.391331,19.118615,,,,1.0,-28.0
049172,Gyáli-patak,47.394752000000004,19.116782,,,,2.0,39.0
049174,"Soroksár, Kertvárosi körút",47.413026,19.136152,,,,2.0,140.0
049180,Dagály fürdő,47.5391,19.061698,,,,1.0,-161.0
049182,Úszódaru utca,47.546042,19.069019,,,,2.0,17.0
049183,Úszódaru utca,47.545898,19.068806,,,,2.0,-163.0
049185,Szántóföld utca,47.572635999999996,19.139460999999997,,,,2.0,37.0
049186,Kalotaszeg utca,47.459214,19.040857,,,,1.0,-165.0
049597,BudaPart,47.468441999999996,19.057157,,,,1.0,103.0
049784,Clark Ádám tér,47.498878999999995,19.040174,,,,1.0,166.0
049785,Clark Ádám tér,47.499328000000006,19.040160999999998,,,,1.0,-14.0
049787,"Nagytétény, Erdélyi utca",47.387982,18.970812,,,,2.0,44.0
049903,Mansfeld Péter park,47.517075,19.033226000000003,,,,2.0,3.0
049914,Sörgyár,47.491859000000005,19.144405,,,,2.0,
050003,Cinkota,47.520006,19.220341,,,,2.0,119.0
050129,Csapó utca,47.440861,19.161363,,,,2.0,
050173,Lincoln út,47.416015,19.2435,,,,2.0,-136.0
050174,Lőrinci utca,47.416612,19.241460999999997,,,,2.0,-47.0
050175,"Pestszentlőrinc, sorompó",47.421906,19.238604000000002,,,,2.0,117.0
050176,"Pestszentlőrinc, sorompó",47.422104,19.238366,,,,2.0,-63.0
050177,"Ganztelep,ednyánszky utca",47.423198,19.234845,,,,2.0,123.0
050178,"Pestszentlőrinc, Béke tér",47.42949,19.218429999999998,050178,,CSF03788,2.0,27.0
050180,Duna utca,47.433015999999995,19.220602,050180,,CSF03785,2.0,20.0
050182,Duna utca,47.433475,19.22063,050182,,CS050182,2.0,-157.0
050183,"Pestszentlőrinc, Béke tér",47.429673,19.218245,050183,,CS050183,2.0,-153.0
050184,Lőrinci piac,47.44313,19.184332,,,,2.0,33.0
050185,"Vecsés,arket Central Ferihegy",47.416726000000004,19.251851000000002,,,,1.0,-54.0
050187,"Vecsés, Fő út",47.418378999999995,19.249419,,,,2.0,114.0
050279,Lomnici utca,47.436482,19.019517,,,,1.0,90.0
056123,Borsmenta utca,47.572507,19.010551,,,,1.0,-135.0
056124,Citronella utca,47.571696,19.006817,,,,1.0,-67.0
056161,Csillaghegy,47.584475,19.044175,,,,2.0,
056162,Mészkő utca,47.579492,19.034353,,,,2.0,-49.0
056163,Mészkő utca,47.579402,19.034313,,,,2.0,131.0
056165,Öregbükk utca,47.58102,19.030165,,,,2.0,-51.0
056166,Öregbükk utca,47.580966,19.030085,,,,2.0,129.0
056168,Cserszömörce utca,47.582575,19.026017,,,,2.0,-64.0
056169,Cserszömörce utca,47.582485,19.025937,,,,2.0,121.0
056173,Mácsonya utca,47.583753,19.023743,,,,2.0,-59.0
056175,Saroglya utca,47.584391,19.022254,,,,2.0,-51.0
056178,Csillaghegy,47.584637,19.043138,,,,2.0,
056187,Muzsla utca [11],47.580911,19.02413,,,,2.0,29.0
056188,Óarany utca [10],47.57922,19.023466,,,,2.0,26.0
056189,Ipacsfa utca,47.429484,19.168656,,,,2.0,129.0
056215,Kelenföld vasútállomás,47.464515000000006,19.019617999999998,056215,,CSLM4KFD,1.0,-86.0
056216,Kelenföld vasútállomás,47.464255,19.020587,056216,,CSLM4KFD,1.0,110.0
056217,Bikás park,47.464881,19.032345,056217,,CSLM4BP1,1.0,-111.0
056218,Bikás park,47.465022,19.033386,056218,,CSLM4BP1,1.0,70.0
056219,Újbuda-központ,47.47286,19.045954000000002,056219,,CSLM4UK1,1.0,-167.0
056220,Újbuda-központ,47.473559,19.046266,056220,,CSLM4UK1,1.0,14.0
056221,Móricz Zsigmond körtér,47.476628999999996,19.047227,056221,,CSLM4MKF,1.0,-167.0
056222,Móricz Zsigmond körtér,47.477309999999996,19.047645000000003,056222,,CSLM4MKF,1.0,14.0
056223,Szent Gellért tér -űegyetem,47.482634999999995,19.054014000000002,056223,,CSLM4SG1,1.0,-130.0
056224,Szent Gellért tér -űegyetem,47.483039,19.055035999999998,056224,,CSLM4SG1,1.0,50.0
056225,Fővám tér,47.485792,19.057571,056225,,CSLM4FT1,1.0,-156.0
056226,Fővám tér,47.486169,19.058009,056226,,CSLM4FT1,1.0,26.0
056227,Kálvin tér,47.488903,19.061022,056227,,CSLM4KVA,1.0,-128.0
056228,Kálvin tér,47.489245000000004,19.061938,056228,,CSLM4KVA,1.0,53.0
056229,Rákóczi tér,47.492725,19.071361,056229,,CS056230,1.0,-101.0
056230,Rákóczi tér,47.49276,19.072489,056230,,CS056230,1.0,78.0
056231,II. János Pál pápa tér,47.495593,19.077229,056231,,CS056232,1.0,-158.0
056232,II. János Pál pápa tér,47.496078000000004,19.077707,056232,,CS056232,1.0,24.0
056233,Keleti pályaudvar,47.500116,19.080722,056233,,CSLMXKPB,1.0,-128.0
056234,Keleti pályaudvar,47.500485,19.081704000000002,056234,,CSLMXKPB,1.0,51.0
056379,Metró DBR járműtelep (kapu),47.461403999999995,19.025005,,,,,
056426,Astoria,47.495523999999996,19.060201,056426,,CSF01108,2.0,
061136,Rákosszeg park,47.534267,19.103451,,,,2.0,26.0
061188,Kelenföld vasútállomás,47.464005,19.018705999999998,,,,1.0,165.0
061222,Kelenföld vasútállomás,47.464364,19.018786,,,,1.0,-176.0
061223,Neszmélyi út,47.460801000000004,19.013867,,,,1.0,-56.0
061224,Péterhegyi út / Neszmélyi út,47.45859,19.018801999999997,,,,1.0,-59.0
061225,Hajtány sor,47.455342,19.024398,,,,2.0,17.0
061226,Péterhegyi út (Menyecske utca),47.461432,19.018932999999997,,,,2.0,-4.0
061227,Péterhegyi út (Menyecske utca),47.461046,19.018907000000002,,,,2.0,170.0
061231,Pajkos utca,47.456866,19.030526000000002,,,,1.0,99.0
061232,Pajkos utca,47.457144,19.029107,,,,1.0,-79.0
061233,Antalháza,47.436488,19.007202,,,,1.0,19.0
061234,Antalháza,47.436388,19.006937,,,,1.0,-162.0
061236,Bíbic utca,47.412085,19.005088,,,,1.0,-43.0
061237,Bíbic utca,47.411959,19.005128,,,,1.0,137.0
061238,Nyéki Imre Uszoda,47.450953999999996,19.036666,,,,2.0,97.0
061271,Igmándi utca,47.457248,19.019994,,,,2.0,179.0
061272,Bolygó utca,47.451139000000005,19.016244,,,,2.0,-163.0
061273,Bolygó utca,47.450752,19.016218,,,,2.0,20.0
061274,Kelenföld vasútállomás,47.464094,19.018481,,,,1.0,176.0
061275,Kelenföld vasútállomás,47.464337,19.018507,,,,1.0,112.0
061277,Kelenföld vasútállomás,47.464634000000004,19.018494,,,,1.0,125.0
061278,Kelenföld vasútállomás,47.464751,19.017791,,,,1.0,-58.0
061280,Kelenföld vasútállomás,47.464436,19.018307999999998,,,,1.0,8.0
061286,Szabina út,47.437241,19.013747,,,,2.0,5.0
061349,Keleti pályaudvar,47.499646999999996,19.083520999999998,,,,1.0,-91.0
061350,Keleti pályaudvar,47.499809,19.083229,,,,1.0,-92.0
061351,Keleti pályaudvar,47.499809,19.083839,,,,1.0,-92.0
061352,Keleti pályaudvar,47.499809,19.084145,,,,1.0,
061367,Puskás Ferenc Stadion,47.49988,19.10753,,,,1.0,
061368,Munkás utca,47.499918,19.079088,,,,1.0,147.0
061378,Szőlőskert utca,47.502266,18.91679,,,,2.0,31.0
061379,"Maglód, Auchan áruház",47.459205,19.332057,,,,2.0,-51.0
062511,Than Károly utca,47.460867,19.025126999999998,,,,1.0,-155.0
062512,Borszéki utca,47.458420000000004,19.023497,,,,1.0,-156.0
062513,Jégmadár utca,47.430794,19.005802,,,,1.0,-37.0
062514,Jégmadár utca,47.430721999999996,19.005656,,,,1.0,143.0
062515,Török utca,47.412771,18.989465,,,,2.0,-125.0
062516,Török utca,47.412851,18.988856,,,,2.0,147.0
062517,Rózsák tere,47.501816999999996,19.075598,,,,1.0,49.0
062518,Március 15. tér,47.491881,19.051747,,,,1.0,-98.0
062519,Gazdagréti út,47.462740999999994,19.005126,,,,1.0,158.0
062521,Corvin-negyed,47.486357,19.06885,,,,1.0,-55.0
062522,XIII. utca / Dózsa György út,47.41113,18.993901,,,,2.0,-42.0
062566,Boráros tér,47.479639,19.067016,,,,,
062604,Nyár utca,47.435693,18.918492999999998,,,,1.0,-28.0
062607,Infopark (Pázmány Péter sétány),47.469871999999995,19.062941,,,,1.0,-88.0
062608,Magyar tudósok körútja,47.471472999999996,19.063671,,,,1.0,81.0
062620,Egyetemváros - A38 hajóállomás,47.473290000000006,19.063539000000002,,,,1.0,167.0
062621,Egyetemváros - A38 hajóállomás,47.473729999999996,19.063592,,,,1.0,-13.0
062622,Magyar tudósok körútja,47.472183,19.063857000000002,,,,1.0,168.0
062726,Régi vám,47.445631,19.005613,,,,2.0,-172.0
062756,Dagály fürdő,47.537696999999994,19.062787,,,,1.0,107.0
062757,Karikás Frigyes utca,47.536815000000004,19.067116,,,,1.0,108.0
062815,Szent László utca,47.405382,18.999105,,,,2.0,-123.0
062861,Dagály fürdő,47.53785,19.062428,,,,1.0,-73.0
062942,Péterfy Sándor utca,47.501636,19.077828,,,,1.0,-31.0
062944,Czetz János köz,47.578206,19.049332999999997,,,,1.0,2.0
062946,Attila utca,47.581317999999996,19.049413,,,,1.0,1.0
062948,Mátyás király út,47.586372999999995,19.050010999999998,,,,1.0,6.0
062950,Bercsényi utca,47.585689,19.051181,,,,1.0,-176.0
063399,Hulladékhasznosítóű,47.584164,19.131198,,,,2.0,29.0
063526,Lehel tér,47.516678999999996,19.061201,,,,2.0,
064067,Massányi úti lakópark,47.359933000000005,19.028745999999998,,,,1.0,133.0
064074,Massányi úti lakópark,47.360751,19.027739,,,,1.0,-46.0
064075,"Szigetszentmiklós, Szabadság utca",47.358296,19.031883999999998,,,,1.0,-35.0
064085,Kölcsey Ferenc utca,47.355275,19.034823,,,,1.0,144.0
064087,Lehel utca,47.352883,19.03849,,,,2.0,130.0
064088,Városi Könyvtár,47.344797,19.04225,,,,1.0,-146.0
064089,Miklós Pláza,47.341631,19.040874,,,,2.0,169.0
064090,Nap utca (óvoda),47.349534999999996,19.025706,,,,1.0,-142.0
064091,Váciihály utca (József Attila-telep),47.338454999999996,19.035846,,,,1.0,1.0
064092,Jókai utca,47.341252000000004,19.035951,,,,1.0,2.0
064093,Akácfa körút,47.344229,19.033185,,,,1.0,-64.0
064103,Tamási Áron utca,47.345046999999994,19.028076000000002,,,,1.0,-96.0
064104,Miklós tér,47.346953000000006,19.023219,,,,2.0,-46.0
064105,Szebeni utca,47.350638000000004,19.016265,,,,2.0,-44.0
064106,Nap utca (óvoda),47.349733,19.026063,,,,1.0,38.0
064107,Ősz utca,47.352942999999996,19.024778,,,,1.0,-41.0
064108,Ady Endre utca,47.355057,19.025848999999997,,,,2.0,44.0
064170,Ady Endre utca,47.355831,19.027066,,,,2.0,-139.0
064175,Ősz utca,47.352385999999996,19.025320999999998,,,,1.0,138.0
064181,Miklós tér,47.347331,19.023126,,,,2.0,-142.0
064182,Tamási Áron utca,47.345002,19.028765,,,,2.0,85.0
064183,Akácfa körút,47.343852000000005,19.034217,,,,2.0,111.0
064184,Jókai utca,47.341072,19.035806,,,,2.0,-178.0
064185,Váciihály utca (József Attila-telep),47.33859,19.035687,,,,1.0,-179.0
064186,Kisfaludy utca,47.342349,19.045001,,,,2.0,34.0
064187,Lehel utca,47.352892,19.038688,,,,2.0,-50.0
064188,Kölcsey Ferenc utca,47.354951,19.035366,,,,2.0,-45.0
064208,Szépvölgyi köz,47.541088,19.00194,,,,2.0,-73.0
064209,Szépvölgyi köz,47.541088,19.001607999999997,,,,2.0,108.0
064210,Fenyőgyöngye,47.54037,19.005647,,,,2.0,-71.0
064212,Selyemakác utca,47.543118,18.996373000000002,,,,2.0,-56.0
064214,Selyemakác utca,47.543064,18.996307,,,,2.0,124.0
064215,Szépvölgyi dűlő,47.545840999999996,18.992119,,,,2.0,-130.0
064239,Leshegy utca,47.376961,19.032246,,,,2.0,92.0
064240,Leshegy utca,47.377069,19.031955,,,,2.0,-88.0
064241,Leshegy Ipari Park,47.376062,19.042074,,,,2.0,139.0
064242,Leshegy Ipari Park,47.375594,19.041992999999998,,,,2.0,47.0
064243,Temető utca,47.356175,19.046920999999998,,,,1.0,22.0
064244,Wesselényi utca,47.351110999999996,19.045279999999998,,,,1.0,32.0
064245,Bánki Donát utca,47.360347999999995,19.047569,,,,1.0,3.0
064246,Bányató út,47.367661,19.048323999999997,,,,2.0,4.0
064316,Bányató út,47.367643,19.048151,,,,2.0,-176.0
064317,Bánki Donát utca,47.359457,19.047263,,,,2.0,-177.0
064318,Temető utca,47.355356,19.045862,,,,1.0,-139.0
064319,Wesselényi utca,47.352046,19.045385,,,,2.0,165.0
064377,Ürömhegyi út / Jutas utca,47.582618,19.015383,,,,2.0,-37.0
066451,Infopark,47.469171,19.059717000000003,,,,1.0,-85.0
066452,Infopark,47.469072,19.0605,,,,1.0,96.0
066453,Budafoki út / Dombóvári út,47.469808,19.053655,,,,1.0,-75.0
066454,Budafoki út / Dombóvári út,47.469646000000004,19.054384,,,,1.0,104.0
066455,Hauszmann Alajos utca / Szerémi út,47.466536,19.049570000000003,,,,1.0,-168.0
066456,Hauszmann Alajos utca / Szerémi út,47.467013,19.049756,,,,1.0,12.0
066457,Hengermalom út / Szerémi út,47.462066,19.048336,,,,1.0,-168.0
066458,Hengermalom út / Szerémi út,47.462551,19.048509,,,,1.0,11.0
066459,Etele út / Fehérvári út,47.462389,19.042594,,,,1.0,-79.0
066460,Etele út / Fehérvári út,47.462253999999994,19.043363,,,,1.0,100.0
066477,Hunyadi János út tároló,47.431139,19.042741,,,,2.0,
066679,Pallós utca,47.487056,19.291849,,,,2.0,65.0
066680,Pallós utca,47.487039,19.291504,,,,2.0,-115.0
066681,Jókaiór Általános Iskola,47.487984999999995,19.294719,,,,2.0,64.0
066682,Jókaiór Általános Iskola,47.487887,19.294135,,,,2.0,-116.0
066683,Csabamező utca / Göcsej utca,47.486349,19.298294,,,,2.0,46.0
066684,Csabamező utca / Göcsej utca,47.486224,19.297962,,,,2.0,-134.0
066685,Ecsedháza köz,47.487963,19.300796,,,,2.0,45.0
066686,Ecsedháza köz,47.488008,19.30077,,,,2.0,-135.0
066687,Ede utca,47.490027000000005,19.303088,,,,2.0,-4.0
066688,Ede utca,47.490153,19.302970000000002,,,,2.0,176.0
066697,Rés utca,47.480157,19.291817,,,,2.0,128.0
066698,Sport tér,47.476785,19.295994,,,,2.0,139.0
066699,Enying utca,47.475188,19.298029,,,,2.0,139.0
066700,Szárazhegy köz,47.473213,19.300607,,,,2.0,138.0
066711,Rákoscsaba-Újtelep vasútállomás,47.486549,19.271041,,,,2.0,-113.0
066712,Szabadság sugárút / Péceli út,47.482938,19.273347,,,,2.0,162.0
066713,Szabadság sugárút / Péceli út,47.482631,19.274063,,,,2.0,-38.0
066714,Nyitány utca,47.480756,19.275992000000002,,,,2.0,142.0
066715,Nyitány utca,47.481053,19.275794,,,,2.0,-38.0
066716,Öntöző utca,47.478737,19.278238,,,,2.0,141.0
066717,Öntöző utca,47.478899,19.278173000000002,,,,2.0,-39.0
066718,Pestvidék utca,47.476592,19.280644,,,,2.0,143.0
066719,Pestvidék utca,47.476781,19.280538,,,,2.0,-37.0
066720,Derkovits tér,47.474869,19.283023999999997,,,,2.0,66.0
066722,Nyeremény utca,47.474462,19.284123,,,,2.0,-113.0
066828,Göncz Árpád városközpont,47.532812,19.065866,,,,1.0,140.0
066856,Pagony utca,47.495101,19.00283,,,,1.0,108.0
066969,Zimonyi utca,47.471748,19.29995,,,,2.0,-129.0
067001,Borszéki utcaOL kút,47.456592,19.024172,,,,2.0,
067002,Kelenföldi VB pályaudvar,47.463328999999995,19.022895000000002,,,,,
067266,Kossuth Lajos tér,47.505615,19.044632999999997,,,,2.0,-5.0
067333,Golgota térOL kút,47.48617,19.093320000000002,,,,2.0,
067334,Hős u.OL kút,47.496093,19.108578,,,,2.0,
067335,Pesti útOL kút,47.484365999999994,19.227629,,,,2.0,
067368,Nagykőrösi útOL kút,47.44263,19.132926,,,,2.0,
067563,"Csepel, Szent István útOL kút",47.419083,19.074285,,,,2.0,
067589,Bem József tér,47.512153999999995,19.039334,,,,2.0,
067592,Batthyány tér,47.506515,19.038487,,,,1.0,-27.0
067622,"Csepel, Csillagtelep",47.40997,19.060354,,,,1.0,27.0
069089,"Margit híd, budai hídfő",47.515149,19.037569,,,,1.0,-101.0
069090,"Margit híd, budai hídfő",47.515122,19.037157999999998,,,,1.0,-11.0
069091,"Margit híd, budai hídfő",47.514717,19.035936,,,,1.0,-163.0
069092,Bem József tér,47.512082,19.039455,,,,1.0,4.0
069093,Bem József tér,47.511776,19.039296,,,,1.0,-175.0
069195,Leshegy Ipari Park,47.375244,19.043158,,,,2.0,-34.0
069403,Jahn Ferenc Kórház,47.423225,19.132016,,,,1.0,137.0
069428,Mátray utca,47.506091999999995,19.028928,,,,1.0,124.0
070997,Széll Kálmán tér,47.507743,19.023301,,,,1.0,
071135,BudaörsetroOL kút,47.460514,18.893214999999998,,,,2.0,
071262,BudaPart,47.468505,19.058444,,,,1.0,-80.0
071659,Nyugati pályaudvar,47.509726,19.054920000000003,,,,1.0,-166.0
072046,Muflon utca,47.570868,18.931414999999998,,,,2.0,-39.0
072047,Muflon utca,47.57067,18.931469,,,,2.0,141.0
072851,Maros utcai rendelőintézet,47.503868,19.022427,,,,2.0,-36.0
072912,Ág utca,47.495662,19.02948,072912,,CSF00097,1.0,
072924,Határ út,47.4642,19.126491,,,,2.0,
072934,Rudas Gyógyfürdő,47.490109999999994,19.047195000000002,,,,1.0,-39.0
072935,Rudas Gyógyfürdő,47.489824,19.047383,,,,1.0,143.0
072938,CS/ Kossuth Lajos utcaOL,47.438084,19.071291,,,,2.0,
073037,Széll Kálmán tér,47.505964,19.0252,,,,1.0,-72.0
073097,Széll Kálmán tér,47.507489,19.023439,,,,1.0,
073099,Széll Kálmán tér,47.507795,19.022886,,,,1.0,
073108,Budafoki út / Dombóvári út,47.468757000000004,19.053324,,,,1.0,2.0
073137,Széll Kálmán tér,47.507107,19.027124,,,,1.0,140.0
073152,Maros utca,47.505533,19.021637,,,,1.0,51.0
073308,Solymár vasútállomás,47.596035,18.949797,,,,1.0,-76.0
073426,Művelődésiáz,47.428626,18.913182,,,,1.0,24.0
073427,Művelődésiáz,47.428518,18.91297,,,,1.0,-155.0
073471,Nyár utca,47.435378,18.918467,,,,1.0,149.0
073472,Harangláb,47.432108,18.913915,,,,2.0,-51.0
073473,Munkácsyihály utca (hősi emlékmű),47.43139,18.916591,,,,2.0,-142.0
073505,Boráros tér,47.479495,19.066751,,,,2.0,131.0
074021,Kőbányai garázs,47.491018,19.114222,074021,,CS074021,2.0,-128.0
074495,Törökbálint Sportközpont,47.440514,18.897223,,,,,35.0
074501,Krisztina tér,47.496699,19.031667000000002,,,,1.0,
074637,Csáktornya park,47.536747999999996,19.106256,,,,1.0,
074909,Auchan Liget,47.541449,19.246632,,,,1.0,-44.0
074959,Deák Ferenc tér,47.498312,19.054866,,,,1.0,0.0
075119,Nyár utca,47.435414,18.918706,,,,1.0,-23.0
075220,Óbudai autóbuszgarázs,47.567996,19.027538,,,,1.0,128.0
075654,Köves út / Szentlőrinci út,47.416057,19.143214999999998,,,,1.0,50.0
075655,Köves út / Szentlőrinci út,47.416265,19.143244,,,,1.0,-130.0
075744,Sasadi út,47.465452,19.015814000000002,,,,1.0,45.0
076394,Aranyvölgy vasútállomás,47.574337,19.016474,,,,1.0,-61.0
076395,Aranyvölgy vasútállomás,47.573789,19.01766,,,,1.0,121.0
076396,Óbuda vasútállomás (Aranyhegyi út),47.570439,19.028423999999998,,,,1.0,112.0
076397,Óbuda vasútállomás (Aranyhegyi út),47.570755,19.027745,,,,1.0,-68.0
076398,Aranyvölgy utca 14.,47.571859,19.022431,,,,1.0,110.0
076399,Aranyvölgy utca 14.,47.572096,19.021853,,,,1.0,-60.0
077969,Andor utcai autóbuszgarázs (kapu),47.457701,19.027184,,,,,
078004,Széll Kálmán tér,47.507304,19.02285,,,,1.0,
078064,Nyéki Imre Uszoda,47.451074,19.037384,,,,2.0,-82.0
081565,Széll Kálmán tér,47.507690999999994,19.02435,,,,1.0,-84.0
081950,Városház tér,47.426313,19.04004,,,,1.0,76.0
081954,Kacsa utca,47.510526,19.039255999999998,,,,1.0,1.0
082040,Főgáz telephely,47.490142999999996,19.114886,,,,,
082200,Bécsi út / Vörösvári út,47.546762,19.029194,,,,1.0,-10.0
082333,Kőbánya-Kispest,47.462755,19.149417,,,,2.0,
082617,Sasadi út,47.466648,19.016251,,,,1.0,-143.0
082623,Rózsakert utca /inta utca,47.403236,19.009361,,,,1.0,-66.0
083329,Bartók Béla út 208.,47.417572,18.985339,,,,1.0,-29.0
083330,Bartók Béla út 208.,47.416996000000005,18.985723999999998,,,,1.0,145.0
083331,Savoyai Jenő tér (Plébánia utca),47.428785999999995,19.035467,,,,1.0,-91.0
083601,Rudas Gyógyfürdő,47.490065,19.047301,,,,,
083777,Budafoki Szomszédok Piaca,47.427563,19.039417,,,,1.0,-103.0
083948,"Árpád fejedelem útja,OL-töltőállomás",47.536055,19.046333999999998,,,,,
085723,Lehel tér,47.5171,19.062144,,,,,
086671,Budaörs1-M7OL kút,47.451598,18.958601,,,,,
086856,Nagyvárad tér,47.477734999999996,19.091387,,,,1.0,31.0
086857,Albert Flórián út,47.473524,19.095031,,,,1.0,-37.0
086859,Népliget,47.476544,19.100752,,,,2.0,-4.0
086874,Vörösmartyihály utca,47.43954,19.164255999999998,,,,1.0,75.0
086875,Kondor Béla sétány,47.438745000000004,19.167223999999997,,,,1.0,122.0
086876,Fiatalság utca,47.437131,19.171052,,,,1.0,123.0
086880,Népliget,47.47622,19.100592000000002,,,,2.0,163.0
086885,Nagyvárad tér,47.478347,19.090723999999998,,,,1.0,124.0
087209,Müpa - Nemzeti Színház,47.469349,19.069917999999998,,,,1.0,-9.0
087373,"Soroksár, IKEA áruház",47.412766999999995,19.160899,,,,1.0,11.0
087616,Mezőkövesd útOL töltőállomás,47.439699,19.044017999999998,,,,,
087617,Budaörsi útOL töltőállomás,47.463919,19.011266,,,,,
088018,"Gyáli út,OL Töltőállomás",47.459785,19.109854000000002,,,,,
088453,Ráckeve kocsiszín (kapu),47.174793,18.941817,,,,2.0,
088670,Repülőmúzeum,47.426502,19.262121,,,,1.0,172.0
088969,Kőbánya-Kispest,47.462796999999995,19.148349,,,,1.0,95.0
089725,Nád utca,47.593723,19.047254000000002,,,,1.0,28.0
090370,Lehel tér,47.518906,19.06096,,,,1.0,48.0
090482,Ötvenhatosok tere,47.507822,19.087004,,,,1.0,-139.0
090693,Hűvösvölgyi útOL kút,47.537116999999995,18.967520999999998,,,,,
090783,"Pilisvörösvár,OL-töltőállomás",47.607595,18.942514000000003,,,,,
090784,"Solymár, PEVDI",47.596764,18.952939999999998,,,,,
090915,Andor utca / Tétényi út,47.457018,19.033547,,,,1.0,-1.0
091120,Szikratávíró utca,47.44726,19.068739,,,,2.0,179.0
091338,Benczúr utca,47.512402,19.0796,,,,1.0,-37.0
091799,Budafok kocsiszín,47.440453999999995,19.036306,,,,2.0,6.0
091816,Angyalföld vasútállomás,47.550363,19.091314999999998,,,,1.0,14.0
091817,Angyalföld vasútállomás,47.549906,19.090953,,,,1.0,-159.0
091821,Angyalföld vasútállomás,47.550036999999996,19.090853,,,,1.0,-160.0
093021,Kelenföld vasútállomás,47.464743,19.023003,093021,,CS007899,1.0,98.0
094273,Normafa,47.503372999999996,18.964966,,,,2.0,
096830,Jogar utca,47.435114,19.013117,,,,1.0,13.0
096989,"Fehér út,OL-töltőállomás",47.500755,19.136788,,,,,
097847,"Mogyoródi út, VB telephely",47.507317,19.113635000000002,,,,,
098518,"Diósd, Kaktusz utca",47.415027,18.951217,,,,2.0,-32.0
098526,"Diósd, Kaktusz utca",47.414632,18.951447,,,,2.0,141.0
098527,"Törökbálint, Telenor",47.430124,18.93517,,,,1.0,-15.0
098531,Farkashegyi repülőtér,47.490163,18.909369,,,,2.0,-149.0
098532,Farkashegyi repülőtér,47.489854,18.909282,,,,2.0,31.0
098535,"Budaörs, Gábor Dénes körút",47.470912,18.901412,,,,2.0,-174.0
098536,"Budaörs, Gábor Dénes körút",47.471798,18.901757,,,,2.0,5.0
098538,Raktárbázis,47.464025,18.900557,,,,2.0,-178.0
098540,Raktárbázis,47.465083,18.900848999999997,,,,2.0,5.0
098674,Baross Gábor utca,47.436562,18.915588,,,,2.0,-4.0
098882,"Budakeszi, Tesco áruház",47.499404,18.915098,,,,2.0,131.0
098921,Gubacsi út VB telephely,47.465388,19.086774,,,,,
099012,"Budakeszi, Tesco áruház",47.499502,18.915257,,,,1.0,-55.0
099342,Kossuth Lajos tér,47.506184999999995,19.049094,,,,1.0,-4.0
099343,Kossuth Lajos tér,47.506003,19.049645,,,,1.0,-98.0
099344,Szemere utca,47.506596,19.050619,,,,1.0,82.0
099629,Bikás park,47.463737,19.032434,,,,1.0,-79.0
099630,Bikás park,47.463603000000006,19.033309,,,,1.0,101.0
099631,Bártfai utca,47.464205,19.028906,,,,1.0,-83.0
099632,Bártfai utca,47.464088000000004,19.029635,,,,1.0,101.0
099633,Kelenföld vasútállomás,47.463943,19.023097,,,,1.0,-169.0
099634,Kelenföld vasútállomás,47.464473,19.023388,,,,1.0,6.0
099640,Kőbánya-Kispest,47.462058,19.150554999999997,,,,,
100836,Iglice utca / Jutas utca,47.577718,19.022364000000003,,,,2.0,28.0
100837,Kőpor köz / Jutas utca,47.580964,19.018280999999998,,,,2.0,-53.0
100838,Kőpor köz / Jutas utca,47.580892,19.018214999999998,,,,2.0,127.0
101178,"Szigetszentmiklós, városháza",47.348981,19.045586,,,,2.0,30.0
101179,Rákóczi utca,47.348872,19.050468,,,,1.0,137.0
101180,Föveny utca,47.350229999999996,19.057828,,,,2.0,78.0
101181,Béke utca,47.352019,19.062635,,,,2.0,45.0
101182,Teleki utca,47.353773,19.059324,,,,2.0,-76.0
101183,Sport utca,47.352092,19.056414999999998,,,,2.0,-128.0
101184,Dunaharaszti utca,47.349496,19.053632999999998,,,,2.0,-139.0
101185,Sport Vendéglő,47.348252,19.049714,,,,2.0,-117.0
101594,WP-056169,47.582485,19.025937,,,,,
102283,Wein János út,47.456524,19.071026999999997,,,,2.0,-91.0
102568,Rózsakert utca /inta utca,47.403155,19.010169,,,,1.0,-144.0
102569,Rózsakert utca /inta utca,47.403776,19.011043,,,,1.0,37.0
102825,Örs vezér tere,47.505315,19.136267999999998,,,,2.0,-159.0
103053,Budaörsi lakótelep,47.455746999999995,18.94116,,,,1.0,30.0
103386,Balatoni út /áros utca,47.433059,19.005476,,,,1.0,18.0
103387,Balatoni út /áros utca,47.432116,19.005231,,,,1.0,37.0
103388,Balatoni út /áros utca,47.431865,19.004616,,,,1.0,-164.0
103389,Balatoni út /áros utca,47.431788,19.004903,,,,1.0,-172.0
103897,Liget sor,47.488046000000004,19.244401999999997,,,,2.0,98.0
105507,Cargo City,47.430323,19.270282,,,,2.0,37.0
105925,Deák Ferenc tér,47.497414,19.054803,,,,1.0,139.0
106324,Szlacsányi Ferenc utca,47.57443,19.126124,,,,2.0,128.0
106325,Szlacsányi Ferenc utca,47.574529,19.12613,,,,2.0,-52.0
106388,Mélyfúró utca,47.577689,19.12966,,,,2.0,-51.0
106390,KÖKI-Regina tároló,47.464388,19.142967000000002,,,,,
107571,Kvassay híd,47.457182,19.071008,,,,2.0,
107799,Budakeszi temető,47.514028,18.922403,,,,2.0,96.0
108430,"Csömöri út,MOL töltőállomás",47.526121999999994,19.12119,,,,,
108475,"Vecsés,0OL töltőállomás",47.38392,19.283063000000002,,,,,
108555,"Budaörs,M1-M7OL (jobb pálya)",47.452884000000005,18.957025,,,,,
108742,Kvassay híd,47.458357,19.071223,,,,2.0,-77.0
108743,Kvassay híd,47.458013,19.071172,,,,2.0,179.0
109234,"Kőbányai út,MOL töltőállomás",47.482459000000006,19.12416,,,,,
109518,Vihorlát út,47.389241,19.100066,,,,1.0,-68.0
109519,Vihorlát út,47.389117999999996,19.100179,,,,1.0,112.0
109702,Liszt Ferenc utca,47.487379,19.249543,,,,2.0,-83.0
109728,Párkány utca,47.534409000000004,19.062404,,,,1.0,106.0
109729,Dagály utcai lakótelep,47.536311,19.065065,,,,1.0,22.0
109790,"Weiss.út,MOL töltőállomás",47.458175,19.071526000000002,,,,,
109849,Doboz utca,47.602194,19.052845,,,,1.0,90.0
109949,"Vágány u.,OL töltőállomás",47.52234,19.081139,,,,,
109989,Széll Kálmán tér,47.505733,19.024793,,,,1.0,12.0
109990,Széll Kálmán tér,47.507754999999996,19.027185,,,,1.0,38.0
110144,"Gödöllő, autóbusz-állomás",47.599396,19.352975,,,,2.0,76.0
110283,Mogyoród útja,47.570617999999996,19.128888,,,,2.0,-58.0
110284,Pentelényi János utca,47.571152000000005,19.132685000000002,,,,2.0,-55.0
110285,Kosd utca,47.571865,19.131003,,,,2.0,127.0
110417,"Tb/Annahegyi pihenő,OL",47.419836,18.921495,,,,,
110452,Nemzetközi Posta Kicserélő Központ,47.427631,19.265759,,,,2.0,-47.0
110633,Prielle K.u.MOL-töltőállomás,47.468708,19.049216,,,,,-75.0
CS007899,Kelenföld vasútállomás,47.464757,19.023003,CS007899,1.0,,,
CS009630,"Budakalász, Auchan áruház",47.611515000000004,19.062365,CS009630,1.0,,,
CS009703,Közvágóhíd,47.467693,19.076535999999997,CS009703,1.0,,,
CS044214,Cinkota,47.51963,19.21781,CS044214,1.0,,,
CS050182,Duna utca,47.433465999999996,19.220657,CS050182,1.0,,,
CS050183,"Pestszentlőrinc, Béke tér",47.429664,19.218270999999998,CS050183,1.0,,,
CS056230,Rákóczi tér,47.492722,19.071817000000003,CS056230,1.0,,,
CS056232,II. János Pál pápa tér,47.4953,19.077244,CS056232,1.0,,,
CS074021,Kőbányai garázs (Salgótarjáni kapu),47.491013,19.114231,CS074021,1.0,,,
CSF00062,Batthyány tér,47.506422,19.038926999999997,CSF00062,1.0,,,
CSF00094,Déli pályaudvar,47.500375,19.024801999999998,CSF00094,1.0,,,
CSF00097,Ág utca,47.495669,19.029466,CSF00097,1.0,,,
CSF00140,Szépvölgyi út,47.527302,19.040167999999998,CSF00140,1.0,,,
CSF00185,"Margit híd, budai hídfő",47.515375,19.039379999999998,CSF00185,1.0,,,
CSF00471,Békásmegyer,47.59809,19.054599,CSF00471,1.0,,,
CSF00481,Csillaghegy,47.58611,19.045005,CSF00481,1.0,,,
CSF00483,Aquincum,47.567254,19.048727,CSF00483,1.0,,,
CSF00487,Rómaifürdő,47.575685,19.048568,CSF00487,1.0,,,
CSF00511,Kaszásdűlő,47.556773,19.045253,CSF00511,1.0,,,
CSF00568,Bécsi út / Vörösvári út,47.548489000000004,19.028968,CSF00568,1.0,,,
CSF00579,Filatorigát,47.551903,19.046243,CSF00579,1.0,,,
CSF00625,Szentlélek tér,47.539636,19.047161,CSF00625,1.0,,,
CSF00632,Tímár utca,47.533963,19.044643,CSF00632,1.0,,,
CSF00678,Óbudai autóbuszgarázs,47.568005,19.026289000000002,CSF00678,1.0,,,
CSF00897,Újpest-városkapu,47.558926,19.079229,CSF00897,1.0,,,
CSF00913,Újpest-központ,47.560429,19.089916,CSF00913,1.0,,,
CSF00958,Kossuth Lajos tér,47.505475,19.04662,CSF00958,1.0,,,
CSF00960,Deák Ferenc tér,47.497567,19.054433,CSF00960,1.0,,,
CSF00997,Bajcsy-Zsilinszky út,47.499875,19.055326,CSF00997,1.0,,,
CSF00999,Március 15. tér,47.49087,19.051641,CSF00999,1.0,,,
CSF01019,Astoria,47.494364000000004,19.060024,CSF01019,1.0,,,
CSF01093,Vörösmarty utca,47.507212,19.066322,CSF01093,1.0,,,
CSF01096,Kodály körönd,47.509234,19.069341,CSF01096,1.0,,,
CSF01101,Bajza utca,47.51132,19.072495,CSF01101,1.0,,,
CSF01108,Astoria,47.495523999999996,19.060167,CSF01108,1.0,,,
CSF01282,Népliget,47.475441,19.098808,CSF01282,1.0,,,
CSF01415,Kén utca,47.454906,19.086555999999998,CSF01415,1.0,,,
CSF01493,Ecseri út,47.47092,19.111329,CSF01493,1.0,,,
CSF01541,Határ út,47.465295000000005,19.126651000000003,CSF01541,1.0,,,
CSF01543,Kőbánya-Kispest,47.463621999999994,19.148115,CSF01543,1.0,,,
CSF01820,Rákosfalva,47.505066,19.151378,CSF01820,1.0,,,
CSF01878,Pöttyös utca,47.468548,19.116946,CSF01878,1.0,,,
CSF02481,Széll Kálmán tér,47.506982,19.024828,CSF02481,1.0,,,
CSF02680,Dózsa György út,47.524609000000005,19.063348,CSF02680,1.0,,,
CSF02684,Gyöngyösi utca,47.548691,19.073233,CSF02684,1.0,,,
CSF03293,Cinkota alsó,47.526364,19.220986,CSF03293,1.0,,,
CSF03409,Árpádföld,47.532978,19.212553,CSF03409,1.0,,,
CSF03411,Szabadságtelep,47.537403999999995,19.206185,CSF03411,1.0,,,
CSF03416,Mátyásföld alsó,47.515986,19.207455,CSF03416,1.0,,,
CSF03417,"Mátyásföld, Imre utca",47.513545,19.199582,CSF03417,1.0,,,
CSF03419,"Mátyásföld, repülőtér",47.511857,19.194054,CSF03419,1.0,,,
CSF03421,Ilonatelep,47.526627000000005,19.229402,CSF03421,1.0,,,
CSF03423,Nagyicce,47.507016,19.16769,CSF03423,1.0,,,
CSF03425,Sashalom,47.508952,19.178647,CSF03425,1.0,,,
CSF03785,Duna utca,47.433025,19.220582,CSF03785,1.0,,,
CSF03788,"Pestszentlőrinc, Béke tér",47.429499,19.218401,CSF03788,1.0,,,
CSF03884,Bajcsy-Zsilinszky út,47.433169,19.206498999999997,CSF03884,1.0,,,
CSF03930,Határ út,47.465146000000004,19.127237,CSF03930,1.0,,,
CSF04052,Torontál utca,47.423190999999996,19.105207999999998,CSF04052,1.0,,,
CSF04150,Pesterzsébet felső,47.438159000000006,19.093611,CSF04150,1.0,,,
CSF04183,Karácsony Sándor utca,47.426802,19.067283,CSF04183,1.0,,,
CSF04272,Csepel,47.421163,19.065786,CSF04272,1.0,,,
CSF04319,Szent Imre tér,47.431321999999994,19.067656,CSF04319,1.0,,,
CSF04369,Szabadkikötő,47.444476,19.071612,CSF04369,1.0,,,
CSF04534,Soroksár felső,47.409659000000005,19.111925,CSF04534,1.0,,,
CSF04540,"Soroksár,ősök tere",47.399309,19.11478,CSF04540,1.0,,,
CSF04546,Szent István utca,47.391672,19.114910000000002,CSF04546,1.0,,,
CSF04548,Millenniumtelep,47.379740999999996,19.104897,CSF04548,1.0,,,
CSF04607,Dunaharaszti felső,47.366371,19.092655,CSF04607,1.0,,,
CSF04610,Dunaharaszti külső,47.360269,19.086422,CSF04610,1.0,,,
CSF04611,Szigetszentmiklós,47.344206,19.050241,CSF04611,1.0,,,
CSF04613,József Attila-telep,47.337095,19.034336,CSF04613,1.0,,,
CSF04615,Szigetszentmiklós alsó,47.336444,19.019614999999998,CSF04615,1.0,,,
CSF04618,Szigetszentmiklós-Gyártelep,47.33372,19.004259,CSF04618,1.0,,,
CSF04619,Szigethalom,47.330040999999994,18.993868,CSF04619,1.0,,,
CSF04621,Szigethalom alsó,47.321368,18.983529,CSF04621,1.0,,,
CSF04623,Tököl,47.313402,18.974231,CSF04623,1.0,,,
CSF04627,Szigetcsép,47.270231,18.956263,CSF04627,1.0,,,
CSF04632,Szigetszentmárton-Szigetújfalu,47.227924,18.946067000000003,CSF04632,1.0,,,
CSF04634,Horgásztanyák,47.213582,18.952953,CSF04634,1.0,,,
CSF04636,Angyalisziget,47.199808000000004,18.945065,CSF04636,1.0,,,
CSF04655,Csömör,47.544998,19.225051,CSF04655,1.0,,,
CSF04656,"Kistarcsa, kórház",47.539065,19.249033999999998,CSF04656,1.0,,,
CSF04658,Kistarcsa,47.545831,19.259801,CSF04658,1.0,,,
CSF04660,Zsófialiget,47.548442,19.264069,CSF04660,1.0,,,
CSF04662,Kerepes,47.553092,19.270897,CSF04662,1.0,,,
CSF04664,Szilasliget,47.568488,19.275036,CSF04664,1.0,,,
CSF04668,Mogyoród,47.596326,19.271728,CSF04668,1.0,,,
CSF04670,Szentjakab,47.597338,19.290352,CSF04670,1.0,,,
CSF04672,"Gödöllő, Erzsébet park",47.595071999999995,19.340770000000003,CSF04672,1.0,,,
CSF04675,"Gödöllő, Szabadság tér",47.597666,19.347925,CSF04675,1.0,,,
CSF04676,"Gödöllő, Palotakert",47.598489,19.356648,CSF04676,1.0,,,
CSF04679,Gödöllő,47.593336,19.357774,CSF04679,1.0,,,
CSF04688,Pannóniatelep,47.652190999999995,19.064901000000003,CSF04688,1.0,,,
CSF04690,Pomáz,47.642959999999995,19.032360999999998,CSF04690,1.0,,,
CSF04693,"Budakalász, Lenfonó",47.621778000000006,19.046751999999998,CSF04693,1.0,,,
CSF04695,Budakalász,47.616164000000005,19.054920000000003,CSF04695,1.0,,,
CSF04793,Szentistvántelep,47.628802,19.043332,CSF04793,1.0,,,
CSL008159,Forgách utca,47.539383,19.069597,CSL008159,1.0,,,
CSLM1HTV,Hősök tere,47.514255,19.076844,CSLM1HTV,1.0,,,
CSLM1MUV,Mexikói út,47.519611,19.091089,CSLM1MUV,1.0,,,
CSLM1OKV,Oktogon,47.505083,19.063168,CSLM1OKV,1.0,,,
CSLM1OPV,Opera,47.502244,19.058873000000002,CSLM1OPV,1.0,,,
CSLM1SFV,Széchenyi fürdő,47.517497999999996,19.08098,CSLM1SFV,1.0,,,
CSLM1VTV,Vörösmarty tér,47.496803,19.050579,CSLM1VTV,1.0,,,
CSLM2BLA,Blaha Lujza tér,47.497097,19.070595,CSLM2BLA,1.0,,,
CSLM2OVE,Örs vezér tere,47.503187,19.136309,CSLM2OVE,1.0,,,
CSLM2PF1,Puskás Ferenc Stadion,47.500265999999996,19.105988,CSLM2PF1,1.0,,,
CSLM2PU2,Pillangó utca,47.50131,19.120057,CSLM2PU2,1.0,,,
CSLM3AHG,Göncz Árpád városközpont,47.532666,19.066857000000002,CSLM3AHG,1.0,,,
CSLM3LED,Lehel tér,47.517635,19.060404000000002,CSLM3LED,1.0,,,
CSLM3NTF,Nagyvárad tér,47.479151,19.089585999999997,CSLM3NTF,1.0,,,
CSLM4BP1,Bikás park,47.465005,19.033382999999997,CSLM4BP1,1.0,,,
CSLM4FT1,Fővám tér,47.486401,19.05732,CSLM4FT1,1.0,,,
CSLM4KFD,Kelenföld vasútállomás,47.464299,19.019717,CSLM4KFD,1.0,,,
CSLM4KVA,Kálvin tér,47.489573,19.06162,CSLM4KVA,1.0,,,
CSLM4MKF,Móricz Zsigmond körtér,47.477362,19.047272,CSLM4MKF,1.0,,,
CSLM4SG1,Szent Gellért tér -űegyetem,47.483245000000004,19.054249,CSLM4SG1,1.0,,,
CSLM4UK1,Újbuda-központ,47.473931,19.046312,CSLM4UK1,1.0,,,
CSLMXKPB,Keleti pályaudvar,47.50009,19.081794,CSLMXKPB,1.0,,,
F00001,Mihály utca,47.486079,19.034561,,,,2.0,-69.0
F00002,Zsolt utca,47.490477,19.030486,,,,2.0,0.0
F00003,Zsolt utca,47.49054,19.030395000000002,,,,1.0,180.0
F00004,Mészáros utca,47.488273,19.031032999999997,,,,1.0,75.0
F00005,Mészáros utca,47.488606,19.031564000000003,,,,1.0,-102.0
F00006,Sánc utca,47.490037,19.036208,,,,1.0,166.0
F00007,Sánc utca,47.489542,19.035491,,,,2.0,60.0
F00008,Sánc utca,47.489632,19.035717,,,,1.0,-120.0
F00009,Sánc utca,47.489425,19.035836,,,,1.0,62.0
F00010,Szirtes út,47.487663,19.03646,,,,2.0,53.0
F00011,Szirtes út,47.488238,19.037084,,,,1.0,-138.0
F00012,Búsuló Juhász (Citadella),47.485594,19.039551,,,,2.0,-80.0
F00013,Királyhágó utca,47.494928,19.023055,,,,1.0,84.0
F00014,Királyhágó utca,47.494442,19.023929000000003,,,,1.0,-4.0
F00015,Királyhágó utca,47.494839,19.023732,,,,1.0,-4.0
F00016,Királyhágó utca,47.495566,19.023015,,,,1.0,-96.0
F00017,Királyhágó utca,47.496016,19.02349,,,,2.0,-179.0
F00018,Királyhágó utca,47.495669,19.023612,,,,1.0,180.0
F00019,Nagyenyed utca,47.498028999999995,19.023857999999997,,,,1.0,-175.0
F00020,Nagyenyed utca,47.498335,19.024010999999998,,,,1.0,5.0
F00021,Déli pályaudvar,47.499614,19.023792999999998,,,,2.0,
F00022,Déli pályaudvar,47.499686,19.024207999999998,,,,2.0,1.0
F00023,Déli pályaudvar,47.500001,19.023809,,,,1.0,-180.0
F00024,Déli pályaudvar,47.500848,19.024020999999998,,,,1.0,-178.0
F00025,Déli pályaudvar,47.501106,19.024176999999998,,,,1.0,3.0
F00026,Déli pályaudvar,47.500801,19.02499,,,,2.0,131.0
F00027,Déli pályaudvar,47.501071,19.024670999999998,,,,2.0,-50.0
F00028,Körmöci utca,47.504372,19.024988,,,,1.0,-33.0
F00029,Körmöci utca,47.504138,19.024989,,,,1.0,149.0
F00030,Mátray utca,47.505965,19.028598000000002,,,,1.0,-82.0
F00032,Széna tér,47.507979,19.029260999999998,,,,1.0,-86.0
F00033,Széna tér,47.507782,19.028184,,,,1.0,108.0
F00034,Fazekas utca,47.508268,19.034372,,,,1.0,9.0
F00035,Fazekas utca,47.507989,19.034132999999997,,,,1.0,-171.0
F00036,Fazekas utca,47.507773,19.033443,,,,1.0,-92.0
F00045,Donáti utca,47.501307000000004,19.036072,,,,1.0,-32.0
F00047,Clark Ádám tér,47.498312,19.039816000000002,,,,1.0,-82.0
F00048,Clark Ádám tér,47.498132,19.040041,,,,1.0,59.0
F00049,Clark Ádám tér,47.497721999999996,19.040644,,,,1.0,
F00051,Halász utca,47.50226,19.039815,,,,1.0,173.0
F00052,Halász utca,47.501784,19.040028,,,,1.0,-8.0
F00053,Halász utca,47.502558,19.039747,,,,2.0,-7.0
F00056,Halász utca,47.501739,19.038966000000002,,,,1.0,164.0
F00057,Batthyány tér,47.506002,19.039456,,,,1.0,-4.0
F00059,Batthyány tér,47.505885,19.038023000000003,,,,1.0,-175.0
F00062,Batthyány tér,47.507412,19.036739,F00062,,CSF00062,2.0,-63.0
F00063,Batthyány tér,47.506826000000004,19.038103,F00063,,CSF00062,2.0,117.0
F00064,Batthyány tér,47.506613,19.038872,,,,1.0,101.0
F00065,Batthyány tér,47.507422999999996,19.039270000000002,,,,1.0,
F00066,Batthyány tér,47.506209000000005,19.039071,,,,1.0,165.0
F00067,Batthyány tér,47.505948,19.038567,,,,1.0,-97.0
F00068,Mária tér,47.506703,19.034797,,,,1.0,102.0
F00069,Bécsi kapu tér,47.504553,19.030683,,,,1.0,10.0
F00070,Bécsi kapu tér,47.504751,19.030324,,,,1.0,-100.0
F00071,Szentháromság tér,47.501324,19.03371,,,,1.0,160.0
F00072,Szentháromság tér,47.501306,19.033896,,,,1.0,-20.0
F00073,Dísz tér,47.499373,19.035992999999998,,,,1.0,-47.0
F00074,Dísz tér,47.49895,19.036113,,,,1.0,144.0
F00076,"Palota út, gyorslift",47.495182,19.038529,,,,2.0,138.0
F00077,Dózsa György tér,47.494732,19.03772,,,,1.0,-87.0
F00078,Dózsa György tér,47.494434999999996,19.037944,,,,1.0,-48.0
F00079,Dózsa György tér,47.49386,19.037494,,,,1.0,131.0
F00080,Dózsa György tér,47.49377,19.038224,,,,2.0,130.0
F00081,Dózsa György tér,47.493697999999995,19.038463,,,,2.0,-47.0
F00082,Alagút utca,47.497853000000006,19.032981,,,,1.0,-44.0
F00083,Krisztina tér,47.496899,19.033406,,,,1.0,75.0
F00084,Alagút utca,47.496567,19.034415,,,,1.0,138.0
F00085,Krisztina tér,47.496881,19.032117,,,,2.0,120.0
F00086,Krisztina tér,47.496621000000005,19.032847,,,,2.0,-51.0
F00087,Krisztina tér,47.496899,19.032742000000002,,,,1.0,-105.0
F00088,Mikó utca,47.499246,19.030829999999998,,,,1.0,135.0
F00089,Mikó utca,47.498365,19.028997,,,,2.0,-55.0
F00090,Mikó utca,47.498374,19.028747,,,,2.0,127.0
F00091,Korlát utca,47.501917,19.027404999999998,,,,1.0,-38.0
F00092,Korlát utca,47.501719,19.027432,,,,1.0,137.0
F00093,Déli pályaudvar,47.499373,19.024769,F00093,,CSF00094,2.0,159.0
F00094,Déli pályaudvar,47.50045,19.024604,F00094,,CSF00094,2.0,-5.0
F00095,Győri út,47.495252,19.025269,,,,2.0,-99.0
F00096,Győri út,47.495207,19.025813,,,,2.0,81.0
F00097,Ág utca,47.495675,19.029451,F00097,,CSF00097,1.0,-145.0
F00098,Ág utca,47.495451,19.029425,,,,1.0,39.0
F00099,Róka utca,47.494209000000005,19.028879,,,,2.0,158.0
F00100,Naphegy tér,47.493445,19.032478,,,,1.0,-114.0
F00101,Várkert Bazár,47.493114,19.043160999999998,,,,1.0,
F00102,Szarvas tér,47.492492,19.042355,,,,1.0,-64.0
F00103,Döbrentei tér,47.491486,19.043705,,,,1.0,132.0
F00104,Döbrentei tér,47.491243,19.043612,,,,1.0,126.0
F00105,Döbrentei tér,47.491737,19.043373000000003,,,,1.0,-53.0
F00106,Várkert Bazár,47.493536,19.044169,,,,1.0,-29.0
F00107,Várkert Bazár,47.493186,19.044315,,,,1.0,151.0
F00108,Rudas Gyógyfürdő,47.48984,19.047207999999998,,,,1.0,144.0
F00110,Döbrentei tér,47.490074,19.044767,,,,1.0,83.0
F00111,Rudas Gyógyfürdő,47.489273,19.046916,,,,1.0,-69.0
F00112,Rudas Gyógyfürdő,47.489075,19.046903,,,,1.0,
F00113,Döbrentei tér,47.490182,19.046863000000002,,,,2.0,-107.0
F00114,Kapisztrán tér,47.504157,19.029301999999998,,,,1.0,142.0
F00115,Szanatórium utca (Vadaspark),47.520539,18.938771,,,,1.0,-172.0
F00116,Szanatórium utca (Vadaspark),47.520206,18.938865,,,,1.0,12.0
F00117,Kökörcsin utca,47.57703,18.938375,,,,1.0,-22.0
F00118,Kökörcsin utca,47.576041,18.938842,,,,2.0,155.0
F00119,Fenyőgyöngye,47.540316,19.006138,,,,2.0,164.0
F00120,Nyereg út,47.537279,19.014083,,,,1.0,-39.0
F00121,Nyereg út,47.537593,19.013551,,,,1.0,147.0
F00122,Pál-völgyi cseppkőbarlang,47.533159999999995,19.016503,,,,1.0,-49.0
F00123,Pál-völgyi cseppkőbarlang,47.532881,19.016755,,,,2.0,128.0
F00124,Csalit utca,47.529481,19.016412,,,,1.0,-93.0
F00125,Csalit utca,47.529338,19.017116,,,,1.0,90.0
F00126,Virág Benedek utca,47.530635,19.027062,,,,1.0,-64.0
F00127,Szépvölgyi út,47.530770000000004,19.026424,,,,2.0,114.0
F00128,Folyondár utca,47.529466,19.030077,,,,1.0,-62.0
F00129,Folyondár utca (Szépvölgyi út),47.529215,19.030475,,,,1.0,119.0
F00130,Ürömi utca,47.528172,19.033304,,,,1.0,-68.0
F00131,Ürömi utca,47.528009999999995,19.033357000000002,,,,1.0,112.0
F00132,Kolosy tér,47.527722,19.03665,,,,1.0,172.0
F00133,Kolosy tér,47.527839,19.036876,,,,1.0,-102.0
F00135,Kolosy tér,47.527983,19.03766,,,,1.0,9.0
F00136,Kolosy tér,47.527687,19.037474,,,,1.0,-172.0
F00137,Kolosy tér,47.528586,19.039001000000003,,,,1.0,14.0
F00138,Kolosy tér,47.526913,19.038204,,,,2.0,-171.0
F00139,Szépvölgyi út,47.527195,19.040181,F00139,,CSF00140,2.0,11.0
F00140,Szépvölgyi út,47.527409999999996,19.040155,F00140,,CSF00140,2.0,-168.0
F00141,Margitsziget /argit híd,47.514717,19.042521,,,,1.0,-93.0
F00142,Margitsziget /argit híd,47.514439,19.044327,,,,1.0,118.0
F00143,Margitsziget /argit híd,47.515986,19.043995000000002,,,,1.0,13.0
F00144,Margitsziget /argit híd,47.515778999999995,19.043743,,,,1.0,-167.0
F00147,Labanc út,47.518988,18.981633,,,,1.0,-76.0
F00148,Labanc út,47.51897,18.980982,,,,1.0,102.0
F00149,Dénes utca,47.521633,18.968511,,,,1.0,-77.0
F00150,Dénes utca,47.521623999999996,18.96794,,,,1.0,111.0
F00151,Baba utca,47.524228,19.013254999999997,,,,1.0,-64.0
F00152,Baba utca,47.524237,19.012936,,,,1.0,116.0
F00153,Garas utca,47.511549,19.019194,,,,2.0,131.0
F00154,Garas utca,47.51128,19.019845,,,,2.0,-49.0
F00155,Városmajor,47.509568,19.014008,,,,1.0,-74.0
F00156,Városmajor,47.509595000000004,19.013212,,,,2.0,-74.0
F00157,Városmajor,47.50955,19.013012,,,,2.0,104.0
F00158,Városmajor,47.509505,19.01369,,,,1.0,106.0
F00159,Szent János Kórház,47.510357,19.008366,,,,1.0,-46.0
F00160,Nagyajtai utca,47.513548,19.003093,,,,1.0,-51.0
F00161,Nagyajtai utca,47.513548,19.002854,,,,2.0,-48.0
F00162,Nagyajtai utca,47.513674,19.002654999999997,,,,2.0,135.0
F00163,Nagyajtai utca,47.513548,19.002642,,,,2.0,131.0
F00164,Budagyöngye,47.516038,18.999533,,,,1.0,-46.0
F00165,Budagyöngye,47.516092,18.999188,,,,2.0,-43.0
F00166,Budagyöngye,47.516663,18.997968,,,,2.0,124.0
F00167,Budagyöngye,47.516146,18.998975,,,,2.0,137.0
F00168,Szépilona,47.517664,18.99511,,,,1.0,-78.0
F00169,Szépilona,47.517494,18.992955,,,,1.0,88.0
F00170,Szépilona,47.517520000000005,18.99527,,,,1.0,102.0
F00171,Kuruclesi út,47.518462,18.985346,,,,1.0,-78.0
F00172,Kuruclesi út,47.518432000000004,18.984581,,,,1.0,103.0
F00173,Vízművek,47.52017,18.973333,,,,1.0,-77.0
F00174,Vízművek,47.520036,18.97336,,,,1.0,99.0
F00175,Bölcsőde,47.523625,18.962055,,,,1.0,-63.0
F00176,Bölcsőde,47.523661,18.961524,,,,2.0,117.0
F00177,Irén utca,47.524594,18.958747,,,,1.0,-78.0
F00178,Irén utca,47.524468,18.958734,,,,2.0,102.0
F00179,"Szépjuhászné, Gyermekvasút",47.527297999999995,18.954068,,,,1.0,-32.0
F00180,"Szépjuhászné, Gyermekvasút",47.527073,18.954042,,,,1.0,146.0
F00181,Laktanya,47.526789,18.948279,,,,1.0,-148.0
F00182,Laktanya,47.526663,18.948412,,,,1.0,32.0
F00183,Országos Korányi Intézet,47.522736,18.941568,,,,1.0,-121.0
F00184,Országos Korányi Intézet,47.522366999999996,18.941157999999998,,,,1.0,58.0
F00185,"Margit híd, budai hídfő",47.515843,19.039533,F00185,,CSF00185,2.0,1.0
F00186,"Margit híd, budai hídfő",47.514908,19.039227,F00186,,CSF00185,2.0,-178.0
F00187,Bem József tér,47.512046000000005,19.039322,,,,1.0,5.0
F00188,Bem József tér,47.511308,19.038221,,,,1.0,176.0
F00189,"Margit híd, budai hídfő",47.514546,19.038897,,,,1.0,88.0
F00190,"Margit híd, budai hídfő",47.51442,19.038831,,,,1.0,
F00191,"Margit híd, budai hídfő",47.514654,19.036653,,,,1.0,-92.0
F00192,"Margit híd, budai hídfő",47.514618,19.038193,,,,1.0,-92.0
F00193,Horvát utca,47.511119,19.034570000000002,,,,1.0,-7.0
F00194,Horvát utca,47.510238,19.034451,,,,1.0,177.0
F00195,Mechwart liget,47.511353,19.032247,,,,1.0,-63.0
F00196,Mechwart liget,47.511236,19.032073999999998,,,,2.0,125.0
F00197,Mechwart liget,47.510534,19.030548,,,,1.0,-116.0
F00198,Mechwart liget,47.510778,19.031462,,,,1.0,-119.0
F00199,Mechwart liget,47.510939,19.032114,,,,1.0,64.0
F00200,Mechwart liget,47.510515999999996,19.031225,,,,2.0,64.0
F00201,Füge utca,47.513933,19.027387,,,,1.0,-72.0
F00202,Füge utca,47.513942,19.02675,,,,1.0,107.0
F00203,Rét utca,47.514589,19.024294,,,,1.0,-49.0
F00204,Rét utca,47.514715,19.023854999999998,,,,1.0,136.0
F00205,Ady Endre utca,47.516802,19.024293,,,,1.0,-46.0
F00206,Ady Endre utca,47.51664,19.024186,,,,1.0,132.0
F00207,Tapolcsányi utca,47.517503999999995,19.021143,,,,1.0,-103.0
F00208,Tapolcsányi utca,47.517368,19.020907,,,,1.0,100.0
F00209,Eszter utca,47.520111,19.021914000000002,,,,1.0,-26.0
F00210,Eszter utca,47.520084000000004,19.021729,,,,1.0,154.0
F00211,Vend utca,47.521685,19.02048,,,,1.0,-56.0
F00212,Vend utca,47.521082,19.021064000000003,,,,1.0,154.0
F00213,Pusztaszeri körönd,47.523213,19.017398,,,,1.0,-107.0
F00214,Pusztaszeri körönd,47.523087,19.01773,,,,1.0,80.0
F00215,Pusztaszeri körönd,47.522826,19.017452,,,,1.0,-59.0
F00216,Pusztaszeri körönd,47.522682,19.017478,,,,1.0,121.0
F00217,Vend utca,47.523590999999996,19.020359,,,,1.0,-101.0
F00218,Vend utca,47.523456,19.020611,,,,1.0,75.0
F00219,Pusztaszeri út,47.524347,19.023001,,,,1.0,-23.0
F00220,Cimbalom utca,47.52406,19.023054000000002,,,,1.0,157.0
F00221,Vérhalom tér,47.520903000000004,19.02514,,,,1.0,-3.0
F00222,Vérhalom tér,47.520579,19.024769,,,,1.0,92.0
F00223,Vérhalom utca,47.519816,19.028845,,,,1.0,17.0
F00224,Mandula utca,47.519609,19.02862,,,,1.0,-163.0
F00225,Sarolta utca,47.522453000000006,19.031803,,,,2.0,-111.0
F00226,Kavics utca,47.521149,19.03187,,,,2.0,0.0
F00227,Vérhalom utca,47.519063,19.033424,,,,2.0,4.0
F00228,Szemlőhegy utca,47.516919,19.027798,,,,1.0,-66.0
F00229,Rómer Flóris utca,47.516748,19.027929999999998,,,,1.0,114.0
F00230,Zivatar utca,47.515607,19.031714,,,,1.0,-61.0
F00231,Zivatar utca,47.515715,19.03117,,,,1.0,119.0
F00232,Margit körút,47.513816999999996,19.033945000000003,,,,2.0,135.0
F00233,Apostol utca,47.514609,19.033215,,,,1.0,-43.0
F00234,"Margit híd, budai hídfő",47.515985,19.039521,,,,1.0,-11.0
F00235,"Margit híd, budai hídfő",47.515365,19.039282,,,,1.0,169.0
F00236,"Margit híd, budai hídfő",47.515041,19.038937,,,,1.0,104.0
F00237,"Margit híd, budai hídfő",47.515518,19.038339,,,,1.0,-2.0
F00239,Szent Lukács Gyógyfürdő,47.517117999999996,19.03652,,,,1.0,-19.0
F00240,Szent Lukács Gyógyfürdő,47.516822,19.036507,,,,1.0,161.0
F00241,Komjádi Béla utca,47.520626,19.036825,,,,1.0,10.0
F00242,Komjádi Béla utca,47.520343,19.03659,,,,1.0,-170.0
F00243,Zsigmond tér,47.524251,19.036929999999998,,,,1.0,0.0
F00244,Zsigmond tér,47.523953999999996,19.036824,,,,1.0,180.0
F00245,Zsigmond tér,47.524991,19.037951,,,,1.0,10.0
F00246,Zsigmond tér,47.524053,19.037421,,,,1.0,-170.0
F00247,Császár-Komjádi uszoda,47.521409000000006,19.038272,,,,1.0,2.0
F00248,Császár-Komjádi uszoda,47.51961,19.038045999999998,,,,1.0,174.0
F00249,Felhévízi utca,47.526579,19.030224,,,,1.0,-93.0
F00250,Felhévízi utca,47.526993,19.031392,,,,2.0,-5.0
F00251,Pusztaszeri út 25.,47.527784000000004,19.028470000000002,,,,1.0,-61.0
F00252,Pusztaszeri út 25.,47.527451,19.028444,,,,1.0,162.0
F00253,Alsó Zöldmáli út,47.528378000000004,19.027328,,,,1.0,-1.0
F00254,Alsó Zöldmáli út,47.52818,19.027076,,,,1.0,178.0
F00255,Szemlő-hegyi-barlang,47.528791,19.024420000000003,,,,1.0,-92.0
F00256,Szemlő-hegyi-barlang,47.52871,19.024168,,,,1.0,88.0
F00257,Zöldmáli lejtő,47.52861,19.021645,,,,1.0,-101.0
F00258,Zöldmáli lejtő,47.528502,19.021604999999997,,,,1.0,79.0
F00259,Zöldkert út,47.529543,19.011127,,,,1.0,-81.0
F00260,Zöldkert út,47.529381,19.011074,,,,1.0,98.0
F00261,Pitypang utca,47.530037,19.008682999999998,,,,1.0,-76.0
F00262,Pitypang utca,47.529803,19.009042,,,,1.0,108.0
F00264,Verecke lépcső,47.529019,19.004288,,,,1.0,-63.0
F00265,Verecke lépcső,47.529117,19.003624,,,,1.0,97.0
F00266,Verecke lépcső,47.529027,19.002548,,,,1.0,-111.0
F00267,Tömörkény utca,47.527437,19.007649,,,,1.0,-29.0
F00268,Tömörkény utca,47.527184999999996,19.007702,,,,1.0,151.0
F00269,Móricz Zsigmond Gimnázium,47.525387,19.009988,,,,1.0,-62.0
F00270,Móricz Zsigmond Gimnázium,47.525521999999995,19.00931,,,,1.0,123.0
F00271,Vöröstorony lépcső,47.531354,18.997248000000003,,,,1.0,-53.0
F00272,Vöröstorony lépcső,47.530905,18.998032000000002,,,,1.0,122.0
F00273,Nagybányai út,47.533628,18.993368,,,,1.0,157.0
F00276,Pasaréti tér,47.523635999999996,18.994267999999998,,,,1.0,-42.0
F00277,Pasaréti tér,47.523707,18.993139000000003,,,,1.0,
F00278,Pasaréti tér,47.5235,18.992834,,,,2.0,-130.0
F00279,Pasaréti tér,47.523519,18.993126,,,,1.0,50.0
F00280,Harangvirág utca,47.521794,18.997536,,,,1.0,-46.0
F00281,Harangvirág utca,47.521398,18.997881,,,,1.0,135.0
F00282,Virág árok,47.519178000000004,19.000989999999998,,,,2.0,-32.0
F00283,Virág árok,47.519501,19.000446,,,,2.0,138.0
F00284,Gábor Áron utca / Pasaréti út,47.516193,19.004525,,,,1.0,-23.0
F00285,Gábor Áron utca / Pasaréti út,47.516742,19.00394,,,,1.0,152.0
F00286,Júlia utca,47.514243,19.007220999999998,,,,2.0,-38.0
F00287,Júlia utca,47.514665,19.006491,,,,2.0,128.0
F00288,Vasas sportpálya,47.51194,19.008418,,,,1.0,-40.0
F00289,Vasas sportpálya,47.511464000000004,19.008896,,,,1.0,124.0
F00290,Fenyves utca,47.523363,19.002297,,,,2.0,-41.0
F00291,Fenyves utca,47.523219,19.00243,,,,2.0,95.0
F00292,Tüske utca,47.521196999999994,19.006362,,,,2.0,-12.0
F00293,Bimbó köz,47.521799,19.005565,,,,2.0,125.0
F00294,Gábor Áron utca,47.519642,19.010466,,,,2.0,-62.0
F00295,Endrődi Sándor utca,47.521071,19.012168,,,,1.0,49.0
F00296,Lóczy Lajos utca,47.519039,19.009617000000002,,,,2.0,-174.0
F00297,Hankóczy Jenő utca,47.516889,19.008902,,,,2.0,132.0
F00298,Zilah utca,47.515603999999996,19.011557999999997,,,,2.0,133.0
F00299,Detrekő utca,47.517348999999996,19.012432999999998,,,,2.0,-35.0
F00300,Balogvár utca,47.515396,19.014549,,,,2.0,-35.0
F00301,Ruszti út,47.514993,19.014572,,,,2.0,37.0
F00302,Rókushegyi lépcső,47.512889,19.017056,,,,2.0,-50.0
F00303,Lorántffy Zsuzsanna út,47.512574,19.017388,,,,2.0,130.0
F00304,Ezredes utca,47.510452,19.021067000000002,,,,2.0,131.0
F00305,Fény utcai piac,47.508275,19.023766000000002,,,,1.0,98.0
F00306,Széna tér,47.508484,19.026989,,,,2.0,-141.0
F00307,Széna tér,47.508114,19.026739000000003,,,,1.0,-143.0
F00308,Széna tér,47.508483,19.027323000000003,,,,1.0,37.0
F00309,Széna tér,47.508376,19.027374,,,,2.0,37.0
F00310,Kelemen László utca,47.522421,18.989152,,,,2.0,137.0
F00311,Kelemen László utca,47.521667,18.990427,,,,2.0,-45.0
F00312,Kelemen László utca,47.52197,18.990313,,,,2.0,-43.0
F00313,Kelemen László utca,47.521682,18.990539000000002,,,,2.0,138.0
F00314,Zuhatag sor,47.526078000000005,18.985992,,,,2.0,-32.0
F00315,Zuhatag sor,47.526114,18.985806,,,,2.0,148.0
F00316,Nagyhíd,47.528541,18.983692,,,,2.0,-32.0
F00317,Nagyhíd,47.528245,18.983825,,,,2.0,148.0
F00318,Vadaskerti utca,47.531796,18.980992,,,,2.0,-30.0
F00319,Vadaskerti utca,47.531884999999996,18.98078,,,,2.0,145.0
F00320,Budenz út,47.52029,18.988862,,,,2.0,98.0
F00321,Szent Ferenc Kórház,47.525983000000004,18.97687,,,,1.0,133.0
F00322,Tárogató út,47.527435,18.979439000000003,,,,2.0,-123.0
F00323,Bölöni György utca,47.525771999999996,18.984479,,,,1.0,-45.0
F00324,Bölöni György utca,47.525816,18.984213,,,,1.0,135.0
F00325,Szerb Antal utca,47.528081,18.981422,,,,1.0,-33.0
F00326,Szerb Antal utca,47.528324,18.980970000000003,,,,1.0,140.0
F00327,Lipótmezei út,47.53049,18.978816000000002,,,,1.0,-36.0
F00328,Lipótmezei út,47.531002,18.978057999999997,,,,1.0,143.0
F00329,Nyéki út,47.534771,18.973917,,,,2.0,-46.0
F00330,Nyéki út,47.534507,18.97399,,,,1.0,133.0
F00331,Csibor utca,47.53669,18.969139000000002,,,,1.0,-64.0
F00332,Csibor utca,47.53607,18.970574,,,,1.0,120.0
